id,establecimiento,tipo,calle,altura,piso_dpto,cruce,barrio_localidad,ciudad,partido_comuna,provincia_region,pais,aprobado,observacion,formattedaddress,latitude,longitude,habilitado,confidence,condones,prueba,vacunatorio,ile,infectologia,ssr,es_rapido,tel_distrib,mail_distrib,horario_distrib,responsable_distrib,web_distrib,ubicacion_distrib,comentarios_distrib,tel_testeo,mail_testeo,horario_testeo,responsable_testeo,web_testeo,ubicacion_testeo,observaciones_testeo,tel_vac,mail_vac,horario_vac,responsable_vac,web_vac,ubicacion_vac,comentarios_vac,tel_ile,mail_ile,horario_ile,responsable_ile,web_ile,ubicacion_ile,comentarios_ile,tel_infectologia,mail_infectologia,horario_infectologia,responsable_infectologia,web_infectologia,ubicacion_infectologia,comentarios_infectologia,tel_ssr,mail_ssr,horario_ssr,responsable_ssr,web_ssr,ubicacion_ssr,comentarios_ssr,servicetype_condones,servicetype_prueba,servicetype_mac,servicetype_ile,servicetype_dc,servicetype_ssr,friendly_condones,friendly_prueba,friendly_mac,friendly_ile,friendly_dc,friendly_ssr,uploader_name,uploader_email,uploader_tel
106162,"Acción Social",,"Nuestra Señora del Buen Viaje",968,,,,"Bahía Blanca",Morón,"Buenos Aires",Argentina,1,,,-34.651703,-58.6222108,1,1,SI,NO,NO,NO,NO,NO,NO,,,,,,,,,"(011) 4489-7860",,,"Referente: Patricia Ramos Y Lucas Jaime",,,"2 Dispensers",,,,,,,,,,,,,,,,,,,,,,,0,,,,,,,,,,,NO,NO,NO,NO,NO,NO,,,
106172,"Acción Social",,Alcorta,340,,,,Morón,Moreno,"Buenos Aires",Argentina,1,,,-34.6590557,-58.7599379,,0.9,SI,NO,NO,NO,NO,NO,NO,"(0237) 4667788",,"Lunes a Viernes de 8:00 a 18:00 hs.",,,,"2 Dispensers",,,,,,,,,,,,,,,,,,,,,,,,,,,,,,,,,,,,,,,,,,NO,NO,NO,NO,NO,NO,,,
106182,"Administracion Nacional De Laboratorios E Institut",,Monteagudo,2510,,,Pergamino,Pergamino,Pergamino,"Buenos Aires",Argentina,1,,,-33.9112035,-60.5885537,,1,NO,NO,SI,NO,NO,NO,NO,,,,,,,,,,,,,,,"02477- 433044",asalas@anlis.gov.ar,,"Adriana Salas",,,,,,,,,,,,,,,,,,,,,,,,,,,,,,,NO,NO,NO,NO,NO,NO,,,
106192,Adonis,,"Carolina Martínez","sin número",,,"Bahía Blanca","Bahía Blanca","Bahía Blanca","Buenos Aires",Argentina,1,,,-38.7183177,-62.2663478,,0.5,SI,NO,NO,NO,NO,NO,NO,,,,"Carolina Martínez",,,,,,,,,,,,,,,,,,,,,,,,,,,,,,,,,,,,,,,,,,,,,NO,NO,NO,NO,NO,NO,,,
106202,"Agrupacion Aviacion",,"Ruta  8","Puerta 4",,,"Bella Vista","Bella Vista","San Miguel","Buenos Aires",Argentina,1,,,-34.5637055,-58.6903973,,0.5,NO,NO,SI,NO,NO,NO,NO,,,,,,,,,,,,,,,1534146060,grachel100983@gmail.com,,"Leiva Graciela Beatriz",,,,,,,,,,,,,,,,,,,,,,,,,,,,,,,NO,NO,NO,NO,NO,NO,,,
106222,"Amas Asociacion Mutual De Accion Solidaria",,Esturla,"sin número",,Zarate,Avellaneda,Avellaneda,Avellaneda,"Buenos Aires",Argentina,1,,,-34.6800934,-58.3317247,,0.5,SI,NO,NO,NO,NO,NO,NO,,,,,,,,,,,,,,,,,,,,,,,,,,,,,,,,,,,,,,,,,,,,,,,,,NO,NO,NO,NO,NO,NO,,,
106242,"Asociacion Civil America Morena",,Doyhennard,815,,,Lavallol,Lavallol,"Lomas De Zamora","Buenos Aires",Argentina,1,,,-34.8058136,-58.4218065,,0.9,SI,NO,NO,NO,NO,NO,NO,4231-8202/4298-0206,,,,,,,,,,,,,,,,,,,,,,,,,,,,,,,,,,,,,,,,,,,,,,,,NO,NO,NO,NO,NO,NO,,,
106252,"Asociación Civil Lazos",,,"sin número",,,"Barrio Villa Zapiola","Barrio Villa Zapiola",Moreno,"Buenos Aires",Argentina,1,,,-35.04999919999999,-59.04999919999999,,0.5,SI,NO,NO,NO,NO,NO,NO,"(011) 50953916",,,"Referente: Esther",,,,,,,,,,,,,,,,,,,,,,,,,,,,,,,,,,,,,,,,,,,,,NO,NO,NO,NO,NO,NO,,,
106262,"Asociación Decidir",,"A. Alcorta",2442,,,"Moreno Sur","Moreno Sur",Moreno,"Buenos Aires",Argentina,1,,,-36.766733,-59.84634440000001,,0.7,SI,NO,NO,NO,NO,NO,NO,"(011) 15 51131769",,"Lunes de 17:30 a 20:00, Martes 15:00 a 18:00 y Jueves 18:30 a 21:00 hs.","Contacto: Licenciada Teodori",,,,,,,,,,,,,,,,,,,,,,,,,,,,,,,,,,,,,,,,,,,,,NO,NO,NO,NO,NO,NO,,,
106272,"Atta / Inadi",,Corrientes,301,,,"Bahía Blanca","Bahía Blanca","Bahía Blanca","Buenos Aires",Argentina,1,,,-38.7154808,-62.2563948,,0.9,SI,NO,NO,NO,NO,NO,NO,0291-4530332,,"16 A 18 HS","Responsable: Patricia Giménez",,,,,,,,,,,,,,,,,,,,,,,,,,,,,,,,,,,,,,,,,,,,,NO,NO,NO,NO,NO,NO,,,
106282,"Atta Mar Del Plata",,"Santiago Del Estero",1356,,,"Mar Del Plata","Mar Del Plata","General Pueyrredón","Buenos Aires",Argentina,1,,,-37.9971568,-57.54363089999999,,0.9,SI,NO,NO,NO,NO,NO,NO,,danielavirginiamacchiavello@yahoo.com.ar,,"Referente: Daniela Virginia Macchiavello",,,,,,,,,,,,,,,,,,,,,,,,,,,,,,,,,,,,,,,,,,,,,NO,NO,NO,NO,NO,NO,,,
106292,"Bar Central",,Irigoyen,"sin número",,"Presidente Perón",Rojas,Rojas,Rojas,"Buenos Aires",Argentina,1,,,-34.197698,-60.7338035,,0.5,SI,NO,NO,NO,NO,NO,NO,"(02474) 15-471748",,"De 7 a 3 hs",,,,,,,,,,,,,,,,,,,,,,,,,,,,,,,,,,,,,,,,,,,,,,NO,NO,NO,NO,NO,NO,,,
106302,"Barrio Bicentenario",,,"sin número",,,,"General Pueyrredón","General Rodríguez","Buenos Aires",Argentina,1,,,-34.6020889,-58.9521294,,0.5,SI,NO,NO,NO,NO,NO,NO,,,"De 08:00 a 17:00 hs.","Referente: Marcela Calabrese",,,"Sala de Enfermería.",,,,,,,,,,,,,,,,,,,,,,,,,,,,,,,,,,,,,,,,,,NO,NO,NO,NO,NO,NO,,,
106312,"Barrio Namuncura Sum",,"Arrollo Sarandi","sin número",,Morse,Avellaneda,Avellaneda,Avellaneda,"Buenos Aires",Argentina,1,,,-34.6832581,-58.3439941,,0.5,SI,NO,NO,NO,NO,NO,NO,,,,,,,,,,,,,,,,,,,,,,,,,,,,,,,,,,,,,,,,,,,,,,,,,NO,NO,NO,NO,NO,NO,,,
106502,"Biblioteca Municipal Domingo Faustino Sarmiento""",,"Almirante Brown",763,,,,Morón,Morón,"Buenos Aires",Argentina,1,,,-34.650422,-58.61952,1,1,SI,NO,NO,NO,NO,NO,NO,,,,,,,,,"(011) 4483-2142",,,,,"Ubicación: Biblioteca",,,,,,,,,,,,,,,,,,,,,,,,0,,,,,,,,,,,NO,NO,NO,NO,NO,NO,,,
106512,"Boliche Bailable",,"Av. San Martín",590,,,Oriente,Oriente,"Coronel Dorrego","Buenos Aires",Argentina,1,,,-38.7420571,-60.60779719999999,,0.7,SI,NO,NO,NO,NO,NO,NO,"02983 495287",,"Viernes, sábados y domingos de 01 a 6hs.",,,,,,,,,,,,,,,,,,,,,,,,,,,,,,,,,,,,,,,,,,,,,,NO,NO,NO,NO,NO,NO,,,
106522,"Boliche Bailable Le Park",,Colón,"sin número",,,"Punta Alta","Punta Alta","Coronel Rosales","Buenos Aires",Argentina,1,,,-38.8760605,-62.07408900000001,,0.5,SI,NO,NO,NO,NO,NO,NO,,,Nocturno,,,,,,,,,,,,,,,,,,,,,,,,,,,,,,,,,,,,,,,,,,,,,,NO,NO,NO,NO,NO,NO,,,
106532,"Boliche Bailable Roka Disco",,Freyre,"sin número",,Cifone,Guaminí,Guaminí,Guaminí,"Buenos Aires",Argentina,1,,,-37.012608,-62.41847109999999,,0.5,SI,NO,NO,NO,NO,NO,NO,,,,,,,,,,,,,,,,,,,,,,,,,,,,,,,,,,,,,,,,,,,,,,,,,NO,NO,NO,NO,NO,NO,,,
106542,"Boliche Rubik",,"Benito De Miguel",663,,,Junín,Junín,Junín,"Buenos Aires",Argentina,1,,,-34.59939,-60.959289,,0.9,SI,NO,NO,NO,NO,NO,NO,"02362 15529685",,,,,,,,,,,,,,,,,,,,,,,,,,,,,,,,,,,,,,,,,,,,,,,,NO,NO,NO,NO,NO,NO,,,
106552,"Brown Noche",,,"sin número",,,"Almirante Brown","Almirante Brown","Almirante Brown","Buenos Aires",Argentina,1,,,-34.8281517,-58.38654709999999,,0.5,SI,NO,NO,NO,NO,NO,NO,,vanguardiavi@hotmail.com,,,,,"Prevencion, Distribucion de folleteria y material",,,,,,,,,,,,,,,,,,,,,,,,,,,,,,,,,,,,,,,,,,NO,NO,NO,NO,NO,NO,,,
106562,"Buscando Un Lugar",,Toledo,"sin número",,Barker,"Barrio Santa Paula","Barrio Santa Paula",Moreno,"Buenos Aires",Argentina,1,,,-36.5026929,-61.0254537,,0.5,SI,NO,NO,NO,NO,NO,NO,,,"Viernes por la tarde","Referente: Emilse Guzmán",,,,,,,,,,,,,,,,,,,,,,,,,,,,,,,,,,,,,,,,,,,,,NO,NO,NO,NO,NO,NO,,,
106612,"Cabaña Joven",,"21 De Enero",301,,,,Pergamino,Pergamino,"Buenos Aires",Argentina,1,,,-33.8912831,-60.5745999,,0.5,SI,NO,NO,NO,NO,NO,NO,"(02477) 440804",,"Lunes a viernes de 8 a 17hs",,,,,,,,,,,,,,,,,,,,,,,,,,,,,,,,,,,,,,,,,,,,,,NO,NO,NO,NO,NO,NO,,,
106632,"C.A.P.S.  15",,"Ingeniero Pereyra",3484,,Rucci,"Ciudadela Sur","Ciudadela Sur","Tres De Febrero","Buenos Aires",Argentina,1,,,-34.6327962,-58.5435804,,0.5,SI,NO,NO,NO,NO,NO,NO,,,"Lunes a Viernes de 09:00 a 14:00 hs.","Mesa De Entradas. Referente: Rocío Rodríguez (adm)",,,,,,,,,,,,,,,,,,,,,,,,,,,,,,,,,,,,,,,,,,,,,NO,NO,NO,NO,NO,NO,,,
106652,"C.A.P.S.  2 De Abril",,"La Trilla","sin número",,Ciudadela,"Barrio ÑAndú/villa Tesei","Barrio ÑAndú/villa Tesei",Hurlingham,"Buenos Aires",Argentina,1,,,-34.6197923,-58.63921500000001,,0.5,SI,NO,NO,NO,NO,NO,NO,"(011) 15 37020898",,"Lunes a Viernes de 8:00 a 14:00 hs.","Responsable Del Dispenser: José Luis- Administrativo",,,,,,,,,,,,,,,,,,,,,,,,,,,,,,,,,,,,,,,,,,,,,NO,NO,NO,NO,NO,NO,,,
106662,"C.A.P.S.  2 Pedro Luro",,"Calle 12","sin número",,"Calle 25","Pedro Luro","Pedro Luro",Villarino,"Buenos Aires",Argentina,1,,,-39.4502724,-62.6761253,,0.5,SI,NO,NO,NO,NO,NO,NO,02928-491055,,"8 a 16 hs.",,,,,,,,,,,,,,,,,,,,,,,,,,,,,,,,,,,,,,,,,,,,,,NO,NO,NO,NO,NO,NO,,,
106672,"C.A.P.S.  25 De Mayo",,"Pastor Naranjo",898,,,"San Nicolás","San Nicolás","San Nicolás","Buenos Aires",Argentina,1,,,-33.3160624534,-60.2433490195,,1,SI,NO,NO,NO,NO,NO,NO,"(03461) 15-405077",,,,,,,,,,,,,,,,,,,,,,,,,,,,,,,,,,,,,,,,,,,,,,,,NO,NO,NO,NO,NO,NO,,,
106682,"C.A.P.S.  3 Médanos",,"Martín Fierro","sin número",,Rivadavia,Médanos,Médanos,Villarino,"Buenos Aires",Argentina,1,,,-38.8283463,-62.6936417,,0.5,SI,NO,NO,NO,NO,NO,NO,,,"7HS. A 14 HS.",,,,,,,,,,,,,,,,,,,,,,,,,,,,,,,,,,,,,,,,,,,,,,NO,NO,NO,NO,NO,NO,,,
106702,"C.A.P.S.  4 Mayor Buratovich",,"Calle 30","sin número",,"Calle 7","Mayor Buratovich","Mayor Buratovich",Villarino,"Buenos Aires",Argentina,1,,,-39.2592545,-62.6145058,,0.5,SI,NO,SI,NO,NO,NO,NO,,,,,,,,,,,,,,,,,,,,,,,,,,,,,,,,,,,,,,,,,,,,,,,,,NO,NO,NO,NO,NO,NO,,,
106732,"C.A.P.S.  9 De Julio",,"Del Pozo","sin número",,Jujuy,"San Nicolás","San Nicolás","San Nicolás","Buenos Aires",Argentina,1,,,-33.3855203,-60.22191179999999,,0.7,SI,NO,NO,NO,NO,NO,NO,"(03461) 15-405095",,,,,,,,,,,,,,,,,,,,,,,,,,,,,,,,,,,,,,,,,,,,,,,,NO,NO,NO,NO,NO,NO,,,
106742,"C.A.P.S.  Altos De La Reja",,Pilcomayo,,,"Benito Juarez","La Reja","La Reja",Moreno,"Buenos Aires",Argentina,1,,,-34.6605554,-58.8419603,,0.7,NO,NO,SI,NO,NO,NO,NO,,,,,,,,,,,,,,,,,,"Oñate Muñoz Isabel",,,,,,,,,,,,,,,,,,,,,,,,,,,,,,,NO,NO,NO,NO,NO,NO,,,
106762,"C.A.P.S.  Barrio Belgrano De Miramar",,"Calle 43",,,"Calle 50 Barrio Belgrano",Miramar,Miramar,"General Alvarado","Buenos Aires",Argentina,1,,,-38.2703168,-57.8394498,,0.5,NO,NO,SI,NO,NO,NO,NO,,,,,,,,,,,,,,,,,,"Sin Dato",,,,,,,,,,,,,,,,,,,,,,,,,,,,,,,NO,NO,NO,NO,NO,NO,,,
106772,"C.A.P.S.  Barrio Ing. Pablo Marin",,"Calle 12",129,,,Navarro,Navarro,Navarro,"Buenos Aires",Argentina,1,,,-35.0125453,-59.2771923,,0.9,NO,NO,SI,NO,NO,NO,NO,,,,,,,,,,,,,,,,,,"Griselda Killian",,,,,,,,,,,,,,,,,,,,,,,,,,,,,,,NO,NO,NO,NO,NO,NO,,,
106782,"C.A.P.S.  Barrio Oeste De Miramar",,"Calle 55",1261,,"Av. 26 Barrio Oeste",Miramar,Miramar,"General Alvarado","Buenos Aires",Argentina,1,,,-38.2816651,-57.85282480000001,,0.9,NO,NO,SI,NO,NO,NO,NO,,,,,,,,,,,,,,,,,,"Sin Dato",,,,,,,,,,,,,,,,,,,,,,,,,,,,,,,NO,NO,NO,NO,NO,NO,,,
106842,"C.A.P.S.  Carupa",,"Ruperto Mazza",1154,,,Tigre,Tigre,Tigre,"Buenos Aires",Argentina,1,,,-34.4363492,-58.5752181,,0.9,NO,NO,SI,NO,NO,NO,NO,,,,,,,,,,,,,,,011-45124513,capscarupa@tigre.gov.ar,,"Dr. Miguel Angel Russo, M.P. N° 45.707",,,,,,,,,,,,,,,,,,,,,,,,,,,,,,,NO,NO,NO,NO,NO,NO,,,
106862,"C.A.P.S.  Conesa",,Rivadavia,"sin número",,Formosa,"San Nicolás","San Nicolás","San Nicolás","Buenos Aires",Argentina,1,,,-34.6045547,-58.3802473,,0.5,SI,NO,NO,NO,NO,NO,NO,"(03461) 49-2041",,,,,,,,,,,,,,,,,,,,,,,,,,,,,,,,,,,,,,,,,,,,,,,,NO,NO,NO,NO,NO,NO,,,
106882,"C.A.P.S.  Del Centro",,"Calle 32",1440,,,Miramar,Miramar,"General Alvarado","Buenos Aires",Argentina,1,,,-38.27010569999999,-57.8443957,,0.9,NO,NO,SI,NO,NO,NO,NO,,,,,,,,,,,,,,,,,,"Sin Dato",,,,,,,,,,,,,,,,,,,,,,,,,,,,,,,NO,NO,NO,NO,NO,NO,,,
106922,"C.A.P.S.  Dra Mabel Santiago",,"San Martín",3151,,,Saladillo,Saladillo,Saladillo,"Buenos Aires",Argentina,1,,,-35.6392344,-59.7789367,,0.9,NO,NO,SI,NO,NO,NO,NO,,,,,,,,,,,,,,,2344453030,,,"Dr Zalazar Nestor Edgardo Mp 18.418",,,,,,,,,,,,,,,,,,,,,,,,,,,,,,,NO,NO,NO,NO,NO,NO,,,
106982,"C.A.P.S.  La Cumparsita",,Sarmiento,1626,,,"Capitán Sarmiento","Capitán Sarmiento","Capitán Sarmiento","Buenos Aires",Argentina,1,,,-34.1700117,-59.7881954,,0.7,SI,NO,NO,NO,NO,NO,NO,,,,,,,,,,,,,,,,,,,,,,,,,,,,,,,,,,,,,,,,,,,,,,,,,NO,NO,NO,NO,NO,NO,,,
107002,"C.A.P.S. La Loma",,"La Plata",,,"San Nicolas","Capitán Sarmiento","Capitán Sarmiento","Capitán Sarmiento","Buenos Aires",Argentina,1,,,-34.1711872,-59.7936926,,0.5,SI,NO,SI,NO,NO,NO,NO,,,,,,,,,,,,,,,02478-483479,,,"Dr. Walter Daniel Pavicich, M.P. N° 63.786",,,,,,,,,,,,,,,,,,,,,,,,,,,,,,,NO,NO,NO,NO,NO,NO,,,
107012,"C.A.P.S.  La Luisa",,"Cabo O. Fregotte","sin número",,,"La Luisa","La Luisa","Capitán Sarmiento","Buenos Aires",Argentina,1,,,-34.12757819999999,-59.92722329999999,,0.5,NO,NO,SI,NO,NO,NO,NO,,,,,,,,,,,,,,,02478-450906,,,"Dr. Adolfo Hipólito Zapata, M.P. N° 61.289",,,,,,,,,,,,,,,,,,,,,,,,,,,,,,,NO,NO,NO,NO,NO,NO,,,
107042,"C.A.P.S.  Los Cachorros",,"Las Margaritas",1156,,,,Ensenada,Pilar,"Buenos Aires",Argentina,1,,,-38.0824889,-57.56735029999999,,0.7,SI,NO,NO,NO,NO,NO,NO,02320-472100,,"24 hs.",,,,,,,,,,,,,,,,,,,,,,,,,,,,,,,,,,,,,,,,,,,,,,NO,NO,NO,NO,NO,NO,,,
107062,"C.A.P.S.  Los Pozos",,Necochea,"sin número",,"Luzuriaga Urbinea",Cañuelas,Cañuelas,Cañuelas,"Buenos Aires",Argentina,1,,,-35.04914249999999,-58.75950530000001,,0.5,NO,SI,NO,NO,NO,NO,NO,,,,,,,,,,,,,,,,,,,,,,,,,,,,,,,,,,,,,,,,,,,,,,,,,NO,NO,NO,NO,NO,NO,,,
107072,"C.A.P.S.  M. Alberti",,Pailette,"sin número",Pilar,"Santa Rita",,Pilar,Pilar,"Buenos Aires",Argentina,1,,,-34.458529,-58.777492,,0.5,SI,NO,NO,NO,NO,NO,NO,02320-474400/474140,,"24 hs.",,,,,,,,,,,,,,,,,,,,,,,,,,,,,,,,,,,,,,,,,,,,,,NO,NO,NO,NO,NO,NO,,,
107092,"C.A.P.S.  Martinez",,"Saenz Valiente",2110,,,Martínez,Martínez,"San Isidro","Buenos Aires",Argentina,1,,,-34.4965007,-58.52636459999999,,0.9,NO,NO,SI,NO,NO,NO,NO,,,,,,,,,,,,,,,011-45803125,,,"Sin Dato (pendiente De Resolución)",,,,,,,,,,,,,,,,,,,,,,,,,,,,,,,NO,NO,NO,NO,NO,NO,,,
107102,"C.A.P.S.  Máximo Paz",,"Calle Belgrano","sin número",,"Colectora Ruta 205",Cañuelas,Cañuelas,Cañuelas,"Buenos Aires",Argentina,1,,,-35.0533783,-58.7578422,,0.7,NO,SI,NO,NO,NO,NO,NO,,,,,,,,,,,,,,,,,,,,,,,,,,,,,,,,,,,,,,,,,,,,,,,,,NO,NO,NO,NO,NO,NO,,,
107172,"C.A.P.S.  N° 17",,"De Marco",101,,Coltelli,Campana,Campana,Campana,"Buenos Aires",Argentina,1,,,-34.1633346,-58.95926429999999,,0.5,NO,NO,SI,NO,NO,NO,NO,,,,,,,,,,,,,,,"(03489) 444367",,,"Dra. María Cecilia Bernatzky, M.P. N° 55.671",,,,,,,,,,,,,,,,,,,,,,,,,,,,,,,NO,NO,NO,NO,NO,NO,,,
107192,"C.A.P.S.  N° 20 Barrio Sarmiento",,Liniers,78,,,Campana,Campana,Campana,"Buenos Aires",Argentina,1,,,-34.1794603,-58.944585,,0.9,NO,NO,SI,NO,NO,NO,NO,,,,,,,,,,,,,,,03489-437553,,,"Dra. María Cecilia Bernatzky, M.P. N° 55.671",,,,,,,,,,,,,,,,,,,,,,,,,,,,,,,NO,NO,NO,NO,NO,NO,,,
107202,"C.A.P.S.  N° 21 Albizola",,"Mateo Blanco",230,,,Campana,Campana,Campana,"Buenos Aires",Argentina,1,,,-34.1633346,-58.95926429999999,,0.5,NO,NO,SI,NO,NO,NO,NO,,,,,,,,,,,,,,,03489-447490,,,"Dra. María De Las Mercedes, M.P. N° 17.522",,,,,,,,,,,,,,,,,,,,,,,,,,,,,,,NO,NO,NO,NO,NO,NO,,,
107212,"C.A.P.S.  N° 25 Barrio 9 De Julio De Campana (ex C",,Maipu,735,,,Campana,Campana,Campana,"Buenos Aires",Argentina,1,,,-34.1841077,-58.95959049999999,,0.9,NO,NO,SI,NO,NO,NO,NO,,,,,,,,,,,,,,,03489-437550,,,"Sin Dato (pendiente De Resolución)",,,,,,,,,,,,,,,,,,,,,,,,,,,,,,,NO,NO,NO,NO,NO,NO,,,
107242,"C.A.P.S.  N° 5",,Aguiar,162,,,Campana,Campana,Campana,"Buenos Aires",Argentina,1,,,-34.2062535,-58.93985259999999,,0.9,NO,NO,SI,NO,NO,NO,NO,,,,,,,,,,,,,,,03489-440050,,,"Dra. María Cecilia Bernatzky, M.P. N° 55.671",,,,,,,,,,,,,,,,,,,,,,,,,,,,,,,NO,NO,NO,NO,NO,NO,,,
107282,"C.A.P.S.  N° 8 Islas",,"Canal Alem",,,"Rio Carabelas",Campana,Campana,Campana,"Buenos Aires",Argentina,1,,,-34.1633346,-58.95926429999999,,0.5,NO,NO,SI,NO,NO,NO,NO,,,,,,,,,,,,,,,03489-15455749,,,"Dr. Antonio Roberto Simioli, M.P. N° 34.180",,,,,,,,,,,,,,,,,,,,,,,,,,,,,,,NO,NO,NO,NO,NO,NO,,,
107322,"C.A.P.S.  Nº 1 La Argentina",,"Sargento Cabral",,,"E. Del Campo Barrio Las Malvinas","General Rodríguez","General Rodríguez","General Rodríguez","Buenos Aires",Argentina,1,,,-34.5986671,-58.93630899999999,,0.7,NO,NO,SI,NO,NO,NO,NO,,,,,,,,,,,,,,,"0237-4840022 (RADIO)",,,"Sin Dato",,,,,,,,,,,,,,,,,,,,,,,,,,,,,,,NO,NO,NO,NO,NO,NO,,,
107332,"C.A.P.S.  Nº 21 Presidente Peron",,Marconi,,,"José Hernández",Claypole,Claypole,"Almirante Brown","Buenos Aires",Argentina,1,,,-34.8169679,-58.3660322,,0.7,NO,NO,SI,NO,NO,NO,NO,,,,,,,,,,,,,,,"(011) 4236-8569",,,"Dr. Pablo Omar Herrera, M.P. N° 111.751",,,,,,,,,,,,,,,,,,,,,,,,,,,,,,,NO,NO,NO,NO,NO,NO,,,
107342,"C.A.P.S.  Pinazo",,Copello,7837,Pilar,"Santa Cecilia",,Pilar,Pilar,"Buenos Aires",Argentina,1,,,-34.4520325,-58.8134881,,0.5,SI,NO,NO,NO,NO,NO,NO,02320-401012,,"24 hs.",,,,,,,,,,,,,,,,,,,,,,,,,,,,,,,,,,,,,,,,,,,,,,NO,NO,NO,NO,NO,NO,,,
107352,"C.A.P.S. Ramón Carrillo",,Santamarina,1853,,,Laprida,Laprida,Laprida,"Buenos Aires",Argentina,1,,,-37.5441082,-60.8020965,,0.9,NO,NO,SI,NO,NO,NO,NO,,,,,,,,,,,,,,,,administracionhospital@laprida.net,,"Dra. María Jesús Pelaez, M.P. N° 113.652",,,,,,,,,,,,,,,,,,,,,,,,,,,,,,,NO,NO,NO,NO,NO,NO,,,
107382,"C.A.P.S.  San Cayetano",,"La Pampa",,,Circunvalación,"Capitán Sarmiento","Capitán Sarmiento","Capitán Sarmiento","Buenos Aires",Argentina,1,,,-34.1801819,-59.78798849999999,,0.7,NO,NO,SI,NO,NO,NO,NO,,,,,,,,,,,,,,,,,,"Dr. Jorge Luis Senfet, M.P. N° 26.344",,,,,,,,,,,,,,,,,,,,,,,,,,,,,,,NO,NO,NO,NO,NO,NO,,,
107392,"C.A.P.S.  San Donato",,Alvear,838,,,Chivilcoy,Chivilcoy,Chivilcoy,"Buenos Aires",Argentina,1,,,-34.9062845,-60.0035061,,0.9,NO,NO,SI,NO,NO,NO,NO,,,,,,,,,,,,,,,,,,"Jaime Carmen",,,,,,,,,,,,,,,,,,,,,,,,,,,,,,,NO,NO,NO,NO,NO,NO,,,
107412,"C.A.P.S. Santa Rosa",,"San Martín",63,,,Cañuelas,Cañuelas,Cañuelas,"Buenos Aires",Argentina,1,,,-35.0590574,-58.76601849999999,,0.9,NO,SI,NO,NO,NO,NO,NO,,,,,,,,,,,,,,,,,,,,,,,,,,,,,,,,,,,,,,,,,,,,,,,,,NO,NO,NO,NO,NO,NO,,,
107422,"C.A.P.S.  Santa Teresa",,Belice,"sin número",,Checoslovaquia,,,,"Buenos Aires",Argentina,1,,,-34.4147006,-58.77592370000001,,0.7,SI,NO,NO,NO,NO,NO,NO,,,"24 hs.",,,,,,,,,,,,,,,,,,,,,,,,,,,,,,,,,,,,,,,,,,,,,,NO,NO,NO,NO,NO,NO,,,
107442,"C.A.P.S.  Unidad Sanitaria San Martin De Porres","Centro de Salud Público",Pellegrini,1940,,,Zárate,Zárate,Zárate,"Buenos Aires",Argentina,1,,,-34.1088303,-59.0292854,1,0.9,NO,NO,SI,NO,NO,NO,NO,,,,,,,,,,,,,,,"(03487) 427663",,,"Odontologa Piccirilli, Maria Elena Mp 50451",,,,,,,,,,,,,,,,,,,,,,,,,,,,,,,NO,NO,NO,NO,NO,NO,,,
107452,"C.A.P.S.  Venerable Madre De San Jose Barrio Camil",,"Gral. Las Heras",956,,,Muñiz,Muñiz,"San Miguel","Buenos Aires",Argentina,1,,,-34.5452141,-58.70320950000001,,0.9,NO,NO,SI,NO,NO,NO,NO,,,,,,,,,,,,,,,,,,"Olga Casal",,,,,,,,,,,,,,,,,,,,,,,,,,,,,,,NO,NO,NO,NO,NO,NO,,,
107462,"C.A.P.S.  Villa Adelina",,"Av. De Mayo",1397,,,"Villa Adelina","Villa Adelina","San Isidro","Buenos Aires",Argentina,1,,,-34.5212863,-58.5450004,,0.9,NO,NO,SI,NO,NO,NO,NO,,,,,,,,,,,,,,,"(011) 4513-7823",,,"Sin Dato (pendiente De Resolución)",,,,,,,,,,,,,,,,,,,,,,,,,,,,,,,NO,NO,NO,NO,NO,NO,,,
107472,"C.A.P.S.  Villa Vatteone",,"12 De Octubre",363,,,"Villa Vatteone","Villa Vatteone","Florencio Varela","Buenos Aires",Argentina,1,,,-34.8166556,-58.27301900000001,,0.9,NO,NO,SI,NO,NO,NO,NO,,,,,,,,,,,,,,,,,,"Dr. Mario Gustavo Rodriguez, M.P. N° 18.979",,,,,,,,,,,,,,,,,,,,,,,,,,,,,,,NO,NO,NO,NO,NO,NO,,,
107482,"Casa de la Juventud",,"Av. Eva Perón (ex Pierrestegui)",,,Baradero,"Morón Sur","Morón Sur",Morón,"Buenos Aires",Argentina,1,,,-34.6332859,-58.6357,1,0.5,SI,NO,NO,NO,NO,NO,NO,,,,,,,,,"(011) 4697-0426",,,"Referente: Mariana",,,"2 Dispensers",,,,,,,,,,,,,,,,,,,,,,,0,,,,,,,,,,,NO,NO,NO,NO,NO,NO,,,
107492,"Casa Promotora De Salud",,"Ricardo Balbín",1237,,,"Barrio Villa Vengochea","Barrio Villa Vengochea","General Rodríguez","Buenos Aires",Argentina,1,,,-34.6036844,-58.3815591,,0.5,SI,NO,NO,NO,NO,NO,NO,,,,"Referente: Laura Gusoni",,,,,,,,,,,,,,,,,,,,,,,,,,,,,,,,,,,,,,,,,,,,,NO,NO,NO,NO,NO,NO,,,
107502,"Ceat N° 1",,Liniers,950,,,,Pergamino,Pergamino,"Buenos Aires",Argentina,1,,,-33.9111211,-60.5824284,,0.9,SI,NO,NO,NO,NO,NO,NO,"(02477) 437036",,"Lunes a viernes de 8 a 17hs",,,,,,,,,,,,,,,,,,,,,,,,,,,,,,,,,,,,,,,,,,,,,,NO,NO,NO,NO,NO,NO,,,
107512,"Cemap Construir Salud",,"Av. Mitre",80,,,"San Miguel","San Miguel","San Miguel","Buenos Aires",Argentina,1,,,-34.543055,-58.7118577,,0.5,NO,NO,SI,NO,NO,NO,NO,,,,,,,,,,,,,,,,,,"Dr. Leanza Carlos Alberto Mp 47791",,,,,,,,,,,,,,,,,,,,,,,,,,,,,,,NO,NO,NO,NO,NO,NO,,,
107522,"Cemap Dr. Ramon Carrillo",,"San Martín",724,,,Quilmes,Quilmes,Quilmes,"Buenos Aires",Argentina,1,,,-34.72487,-58.2576822,,1,NO,NO,SI,NO,NO,NO,NO,,,,,,,,,,,,,,,,,,"Dr. Leanza Carlos Alberto",,,,,,,,,,,,,,,,,,,,,,,,,,,,,,,NO,NO,NO,NO,NO,NO,,,
107532,Cempre,,Pellegrini,111,,Rivadavia,"San Nicolás","San Nicolás","San Nicolás","Buenos Aires",Argentina,1,,,-33.330321,-60.214905,,1,SI,NO,NO,NO,NO,NO,NO,"(03461) 50-8835",,,,,,,,,,,,,,,,,,,,,,,,,,,,,,,,,,,,,,,,,,,,,,,,NO,NO,NO,NO,NO,NO,,,
107542,"Oficina de Empleo",,"San Martín",471,,,,Morón,Morón,"Buenos Aires",Argentina,1,,,-34.653622,-58.6228186,1,1,SI,NO,NO,NO,NO,NO,NO,,,,,,,,,"(011) 4489-0852",,,"Referente: Augusto, Daniel",,,,,,,,,,,,,,,,,,,,,,,,,,0,,,,,,,,,,,NO,NO,NO,NO,NO,NO,,,
107562,"Centro ""vivir Sin Violencia"" Municipal",,Rivadavia,775,,,,"General Rodríguez","General Rodríguez","Buenos Aires",Argentina,1,,,-34.6115448,-58.9542539,,0.9,SI,NO,NO,NO,NO,NO,NO,"(0237) 4844878",,"De 08:00 a 14:00 hs.",,,"Pasillo Central",,,,,,,,,,,,,,,,,,,,,,,,,,,,,,,,,,,,,,,,,,,NO,NO,NO,NO,NO,NO,,,
107592,"Centro Asistencial Campo De Mayo - Escuela De Subo",,"Ruta Nacional  202",,,"Ruta Nacional Nro 8","Campo De Mayo","Campo De Mayo","San Miguel","Buenos Aires",Argentina,1,,,-34.5549429,-58.6575748,,0.5,NO,NO,SI,NO,NO,NO,NO,,,,,,,,,,,,,,,4666-3463,,,"My Med Perez",,,,,,,,,,,,,,,,,,,,,,,,,,,,,,,NO,NO,NO,NO,NO,NO,,,
107602,"Centro Asistencial De Hilario Ascasubi",,"Ing. Urgoitti",269,,,Villarino,Villarino,Villarino,"Buenos Aires",Argentina,1,,,-39.0348903,-62.6383524,,0.5,NO,SI,NO,NO,NO,NO,NO,,,,,,,,"(02928) 491055",,,,,,,,,,,,,,,,,,,,,,,,,,,,,,,,,,,,,,,,,NO,NO,NO,NO,NO,NO,,,
107692,"Centro Atencion Primaria De La Salud Dr. Ramon Car",,Tomkinson,2130,,,"San Isidro","San Isidro","San Isidro","Buenos Aires",Argentina,1,,,-34.4765996,-58.5457268,,1,NO,NO,SI,NO,NO,NO,NO,,,,,,,,,,,,,,,011-47173148,,,"Sin Dato (pendiente De Resolución)",,,,,,,,,,,,,,,,,,,,,,,,,,,,,,,NO,NO,NO,NO,NO,NO,,,
107702,"Centro Comunitario De Cuartel V",,"Obrador Municipal","sin número",,,,Moreno,Moreno,"Buenos Aires",Argentina,1,,,-34.6340099,-58.791382,,0.5,SI,NO,NO,NO,NO,NO,NO,"(0237) 4629034",,,,,,,,,,,,,,,,,,,,,,,,,,,,,,,,,,,,,,,,,,,,,,,,NO,NO,NO,NO,NO,NO,,,
107722,"Centro Comunitario Villa Alicia",,"Calle 13",,,"Calle 18 Villa Alicia",Pergamino,Pergamino,Pergamino,"Buenos Aires",Argentina,1,,,-33.8912831,-60.5745999,,0.5,NO,NO,SI,NO,NO,NO,NO,,,,,,,,,,,,,,,02477-442917,,,"Sin Dato",,,,,,,,,,,,,,,,,,,,,,,,,,,,,,,NO,NO,NO,NO,NO,NO,,,
107732,"Centro Cultural El Galpon De Claypole",,Aquino,525,,,Claypole,Claypole,"Almirante Brown","Buenos Aires",Argentina,1,,,-34.8150945,-58.35893160000001,,0.9,SI,NO,NO,NO,NO,NO,NO,4238-8454,"monona_76_86@hotmail.com/ mvperezavila@yahoo.com.a",,,,,,,,,,,,,,,,,,,,,,,,,,,,,,,,,,,,,,,,,,,,,,,NO,NO,NO,NO,NO,NO,,,
107742,"Centro Cultural El Hornero",,"El Litoral",808,,,"Lomas De Zamora","Lomas De Zamora","Lomas De Zamora","Buenos Aires",Argentina,-1,,,-34.75284480000001,-58.3507684,,1,SI,NO,NO,NO,NO,NO,NO,,,"Miercoles de 16 a 18 y Viernes de 18 a 21",,,,,,,,,,,,,,,,,,,,,,,,,,,,,,,,,,,,,,,,,,,,,,NO,NO,NO,NO,NO,NO,,,
107752,"Centro Cultural El Transformador",,Caseros,,,Lavallol,"Haedo Norte","Haedo Norte",Morón,"Buenos Aires",Argentina,1,,,-34.636844,-58.3815591,1,0.5,SI,NO,NO,NO,NO,NO,NO,,,,,,,,,"(011) 4659-8757",,,"Referente: Aylin Fernández",,,"Cantidad: 3 dispensers",,,,,,,,,,,,,,,,,,,,,,,0,,,,,,,,,,,NO,NO,NO,NO,NO,NO,,,
107762,"Centro Cultural La Casa del Pueblo",,"Marcos Sastre",57,,,"Haedo Centro","Haedo Centro",Morón,"Buenos Aires",Argentina,1,,,-34.6456622,-58.5932577,1,89.999,SI,NO,NO,NO,NO,NO,NO,,,,,,,,,"(011) 4659-5516",,,"Referente: Mariano",,,,,,,,,,,,,,,,,,,,,,,,,,0,,,,,,,,,,,NO,NO,NO,NO,NO,NO,,,
107772,"Centro Cultural La Gloriosa",,"Camino Negro",3701,,Amberes,"Lomas De Zamora","Lomas De Zamora","Lomas De Zamora","Buenos Aires",Argentina,1,,,-34.7665569,-58.3536655,,0.7,SI,NO,NO,NO,NO,NO,NO,,,,,,,,,,,,,,,,,,,,,,,,,,,,,,,,,,,,,,,,,,,,,,,,,NO,NO,NO,NO,NO,NO,,,
107782,"Centro De Adultos Mayores",,Soler,255,,Olazábal,,"Carlos Tejedor",Ituzaingó,"Buenos Aires",Argentina,1,,,-34.657565,-58.66830679999999,,0.9,SI,NO,SI,NO,NO,NO,NO,,,,,,,,,,,,,,,,,,,,,,,,,,,,,,,,,,,,,,,,,,,,,,,,,NO,NO,NO,NO,NO,NO,,,
107792,"Centro de Atención de ETS",,"Av. Libertador",751,,,Moreno,Moreno,Moreno,"Buenos Aires",Argentina,1,,,-346.413.309,-5.878.819.989.999.990,,0.9,SI,NO,SI,NO,NO,NO,NO,"(0237) 4662448",,"Lunes a Viernes de 8:00 a 18:00 hs.",,,,,,,,,,,,0237-4622448,,,"Aste Graciela Margarita",,,,,,,,,,,,,,,,,,,,,,,,,,,,,,,NO,NO,NO,NO,NO,NO,,,
107802,"Centro de Atención Dr. Rurilio Manuel Zuccherino","Centro de Salud",Colón,393,,,América,America,Rivadavia,"Buenos Aires",Argentina,1,,,-354.891.43,-6.297.563.,1,0.5,SI,NO,SI,SI,NO,SI,NO,,,,,,,,,,,,,,,02337-454518/2100,,,,,,,,,,,,,,,,,,,,,02337-454518/2100,,,,,,,,,,,,,NO,NO,NO,NO,NO,NO,,,
107812,"Centro de Atención Familiar y de Salud Juana Manso",,"Juan Agustín García",5960,,,Tigre,Tigre,Tigre,"Buenos Aires",Argentina,1,,,-34.425.087,-5.857.965.850.000.000,,0.5,NO,NO,SI,NO,NO,NO,NO,,,,,,,,,,,,,,,,,,"Dra. Laura Sabrina Gomel, M.P. N° 449.366",,,,,,,,,,,,,,,,,,,,,,,,,,,,,,,NO,NO,NO,NO,NO,NO,,,
107822,"Centro De Atencion Pesoa",,"Ernesto Rodriguez",,,O'higgins,"San Vicente","San Vicente","San Vicente","Buenos Aires",Argentina,1,,,-35.0311935,-58.41208210000001,,0.7,NO,NO,SI,NO,NO,NO,NO,,,,,,,,,,,,,,,"02225-481101 INT.129/130",,,"Sin Dato (pendiente De Resolución)",,,,,,,,,,,,,,,,,,,,,,,,,,,,,,,NO,NO,NO,NO,NO,NO,,,
107842,"Centro De Atencion Primaria Barrio Acevedo","Centro de Salud","Raimundo R.",186,,,Pergamino,Pergamino,Pergamino,"Buenos Aires",Argentina,1,,,-33.8865164,-60.5639629,1,0.9,SI,NO,SI,SI,NO,SI,NO,,,,,,,,,,,,,,,"(02477) 434693",,,"Sin Datos",,,,,,,,,,,,,,,,,,02477-434693,,,,,,,,,,,,,NO,NO,NO,NO,NO,NO,,,
107852,"Centro De Atencion Primaria De La Salud Belgrano",,"Av. Belgrano",1661,,,"Don Torcuato Este","Don Torcuato Este",Tigre,"Buenos Aires",Argentina,1,,,-34.6036844,-58.3815591,,0.5,NO,NO,SI,NO,NO,NO,NO,,,,,,,,,,,,,,,47317629,capsbelgrano@tigre.gov.ar,,"Dra. Verónica Nicola, M.P. N° 452.314",,,,,,,,,,,,,,,,,,,,,,,,,,,,,,,NO,NO,NO,NO,NO,NO,,,
107862,"Centro De Atencion Primaria De La Salud De Gardey",,"Av. 13",580,,,Gardey,Gardey,Tandil,"Buenos Aires",Argentina,1,,,-37.27976960000001,-59.3629127,,0.5,NO,NO,SI,NO,NO,NO,NO,,,,,,,,,,,,,,,02293-493045,,,"Sin Dato",,,,,,,,,,,,,,,,,,,,,,,,,,,,,,,NO,NO,NO,NO,NO,NO,,,
107872,"Centro De Atencion Primaria De La Salud Dr. Franci",,"Rafael Hernandez  Barrio Los Zorzales","sin número",,,"San Carlos De Bolivar","San Carlos De Bolivar",Bolívar,"Buenos Aires",Argentina,1,,,-36.2391263,-61.1255879,,0.5,NO,NO,SI,NO,NO,NO,NO,,,,,,,,,,,,,,,,,,"Sin Dato",,,,,,,,,,,,,,,,,,,,,,,,,,,,,,,NO,NO,NO,NO,NO,NO,,,
107882,"Centro De Atencion Primaria De La Salud Dr. Washin",,"Avenida Calfucura",,,"La Pampa Barrio Jardin","San Carlos De Bolivar","San Carlos De Bolivar",Bolívar,"Buenos Aires",Argentina,1,,,-36.2391263,-61.1255879,,0.5,NO,NO,SI,NO,NO,NO,NO,,,,,,,,,,,,,,,,,,"Sin Dato",,,,,,,,,,,,,,,,,,,,,,,,,,,,,,,NO,NO,NO,NO,NO,NO,,,
107902,"Centro De Atencion Primaria De La Salud Intendente",,"Primera Junta",,,"San Marin º",Baradero,Baradero,Baradero,"Buenos Aires",Argentina,1,,,-33.812014,-59.50463999999999,,0.5,NO,NO,SI,NO,NO,NO,NO,,,,,,,,,,,,,,,03329-494095,,,"Sin Dato",,,,,,,,,,,,,,,,,,,,,,,,,,,,,,,NO,NO,NO,NO,NO,NO,,,
107912,"Centro De Atencion Primaria De La Salud Jose P. As",,Boedo,,,"Costa De Rio Baradero º",Baradero,Baradero,Baradero,"Buenos Aires",Argentina,1,,,-33.812014,-59.50463999999999,,0.5,NO,NO,SI,NO,NO,NO,NO,,,,,,,,,,,,,,,,,,"Sin Dato",,,,,,,,,,,,,,,,,,,,,,,,,,,,,,,NO,NO,NO,NO,NO,NO,,,
107942,"Centro De Atencion Primaria De La Salud Martin Gue",,"Calle 45",,,"Calle 38",Mercedes,Mercedes,Mercedes,"Buenos Aires",Argentina,1,,,-34.6578993,-59.4428269,,0.9,NO,NO,SI,NO,NO,NO,NO,,,,,,,,,,,,,,,02324-427893,,,"Sin Dato",,,,,,,,,,,,,,,,,,,,,,,,,,,,,,,NO,NO,NO,NO,NO,NO,,,
107962,"Centro De Atencion Primaria De La Salud Open Door",,Corrientes,,,"Santiago Del Estero","Open Door (Est. Dr. Domingo Cabred) (Open Door)","Open Door (Est. Dr. Domingo Cabred) (Open Door)",Luján,"Buenos Aires",Argentina,1,,,-34.49112,-59.07522409999999,,0.5,NO,NO,SI,NO,NO,NO,NO,,,,,,,,,,,,,,,02323-496230,,,"Sin Dato",,,,,,,,,,,,,,,,,,,,,,,,,,,,,,,NO,NO,NO,NO,NO,NO,,,
107982,"Centro De Atencion Primaria De La Salud San Franci",,"Calle 7",,,"Calle 106  Barrio Guemes",Mercedes,Mercedes,Mercedes,"Buenos Aires",Argentina,1,,,-34.6510201,-59.43059960000001,,0.5,NO,NO,SI,NO,NO,NO,NO,,,,,,,,,,,,,,,02324-424870,,,"Sin Dato",,,,,,,,,,,,,,,,,,,,,,,,,,,,,,,NO,NO,NO,NO,NO,NO,,,
108002,"Centro De Atencion Primaria Dr Pascual Giudice",,"La Paz",,,"San Martín",Ensenada,Ensenada,Ensenada,"Buenos Aires",Argentina,1,,,-34.8561466,-57.91167340000001,,0.7,NO,NO,SI,NO,NO,NO,NO,,,,,,,,,,,,,,,0221-4691268,,,"Sanchez Marta",,,,,,,,,,,,,,,,,,,,,,,,,,,,,,,NO,NO,NO,NO,NO,NO,,,
108042,"Centro De Atencion Primaria Milagros",,"Calle 34",202,,,"25 De Mayo","Norberto De La Riestra","25 De Mayo","Buenos Aires",Argentina,1,,,-35.4391272,-60.1855455,,0.9,NO,NO,SI,NO,NO,NO,NO,,,,,,,,,,,,,,,,,,"Noemí Esther Villalonga",,,,,,,,,,,,,,,,,,,,,,,,,,,,,,,NO,NO,NO,NO,NO,NO,,,
108052,"Centro De Atencion Primaria Pinzon",,"Avenida 2",,,"9 De Julio",Pinzon,Pinzon,Pergamino,"Buenos Aires",Argentina,1,,,-33.9833298,-60.73332980000001,,0.5,NO,NO,SI,NO,NO,NO,NO,,,,,,,,,,,,,,,02477-483005,,,"Sin Dato",,,,,,,,,,,,,,,,,,,,,,,,,,,,,,,NO,NO,NO,NO,NO,NO,,,
108072,"Centro De Atencion Primaria Socio Sanitaria Rosa M",,"Boer 430 Barrio Villa Campi",,,,"San Nicolás De Los Arroyos","San Nicolás De Los Arroyos","San Nicolás","Buenos Aires",Argentina,1,,,-33.3334669,-60.2110494,,0.5,NO,NO,SI,NO,NO,NO,NO,,,,,,,,,,,,,,,,,,"Sin Dato",,,,,,,,,,,,,,,,,,,,,,,,,,,,,,,NO,NO,NO,NO,NO,NO,,,
108082,"Centro De Consultorios Externos Y Diagnostico Por",,"25 De Mayo N",70,,,"Marcos Paz","Marcos Paz","Marcos Paz","Buenos Aires",Argentina,1,,,-34.7830873,-58.83822279999999,,0.9,NO,NO,SI,NO,NO,NO,NO,,,,,,,,,,,,,,,,,,"Dr Zabaljauregui Nestor Jose Mp 113.358",,,,,,,,,,,,,,,,,,,,,,,,,,,,,,,NO,NO,NO,NO,NO,NO,,,
108092,"Centro De Diabetes Y Enfermedades Metabolicas Dr.","Centro de Salud Público","San Martín",1675,,,"Los Polvorines","Los Polvorines","Malvinas Argentinas","Buenos Aires",Argentina,1,,,-34.50734449999999,-58.70591630000001,,0.9,NO,NO,SI,NO,NO,NO,NO,,,,,,,,,,,,,,,,,,"Dra. Luisa Mabel Carrió, M.P. N° 53.110",,,,,,,,,,,,,,,,,,,,,,,,,,,,,,,NO,NO,NO,NO,NO,NO,,,
108112,"Centro De Entrenamiento Pergamino",,"Ruta 8","sin número",,,,Pergamino,Pergamino,"Buenos Aires",Argentina,1,,,-33.8940933,-60.5450531,,0.7,SI,NO,NO,NO,NO,NO,NO,,,,,,,,,,,,,,,,,,,,,,,,,,,,,,,,,,,,,,,,,,,,,,,,,NO,NO,NO,NO,NO,NO,,,
108122,"Centro De Especialidades Medicas Ambulatorias Cema",,Pehuajó,250,,,"Mar Del Plata","Mar Del Plata","General Pueyrredón","Buenos Aires",Argentina,1,,,-38.0143958,-57.58240229999999,,0.9,NO,NO,SI,NO,NO,NO,NO,,,,,,,,,,,,,,,,,,"Doctor Alejandro Ruben Cristaldi Mp 930333",,,,,,,,,,,,,,,,,,,,,,,,,,,,,,,NO,NO,NO,NO,NO,NO,,,
108132,"Centro De Formacion Profesional 405",,Cerrito,290,,,"Lomas De Zamora","Lomas De Zamora","Lomas De Zamora","Buenos Aires",Argentina,1,,,-34.7651048,-58.3937378,,0.9,SI,NO,NO,NO,NO,NO,NO,,,,,,,,,,,,,,,,,,,,,,,,,,,,,,,,,,,,,,,,,,,,,,,,,NO,NO,NO,NO,NO,NO,,,
108142,"Centro De Integracion Comunitaria",,Lobos,,,"Chascomús Bo. El Rocío",Bosques,Bosques,"Florencio Varela","Buenos Aires",Argentina,1,,,-34.8250771,-58.2246208,,0.5,NO,NO,SI,NO,NO,NO,NO,,,,,,,,,,,,,,,,,,"Sin Contacto",,,,,,,,,,,,,,,,,,,,,,,,,,,,,,,NO,NO,NO,NO,NO,NO,,,
108152,"Centro De Integración Comunitaria (barrio Obrero)",,"Calle 169","sin número",,"Calle 33",Berisso,Berisso,Berisso,"Buenos Aires",Argentina,1,,,-34.8776772,-57.86548819999999,,0.7,NO,SI,NO,NO,NO,NO,NO,,,,,,,,,,,,,,,,,,,,,,,,,,,,,,,,,,,,,,,,,,,,,,,,,NO,NO,NO,NO,NO,NO,,,
108162,"Centro De La Mujer Y Familia ""evita""",,"Presidente Perón",8737,,,"Pablo Podestá","Pablo Podestá","Tres De Febrero","Buenos Aires",Argentina,1,,,-34.57664280000001,-58.60774619999999,,0.9,SI,NO,NO,NO,NO,NO,NO,,,,"Referente: Gabriel Restuccia ( Op. Común)",,,,,,,,,,,,,,,,,,,,,,,,,,,,,,,,,,,,,,,,,,,,,NO,NO,NO,NO,NO,NO,,,
108172,"Centro De Medicina Preventiva Dr. Ferreyra",,"Rivadavia Bernardino",45,,,"San Nicolás De Los Arroyos","San Nicolás De Los Arroyos","San Nicolás","Buenos Aires",Argentina,1,,,-33.3334669,-60.2110494,,0.5,NO,NO,SI,NO,NO,NO,NO,,,,,,,,,,,,,,,,,,"Sin Dato",,,,,,,,,,,,,,,,,,,,,,,,,,,,,,,NO,NO,NO,NO,NO,NO,,,
108182,"Centro de Medicina Preventiva Dr. Rene Favaloro",,"Sitio De Montevideo",1862,,,"Lanús Oeste","Lanús Oeste",Lanús,"Buenos Aires",Argentina,1,,,-34.7113727,-58.3815199,,0.9,NO,NO,SI,NO,NO,NO,NO,,,,,,,,,,,,,,,"(011) 4240-0493",,,"Sin Dato",,,,,,,,,,,,,,,,,,,,,,,,,,,,,,,NO,NO,NO,NO,NO,NO,,,
108212,"Centro De Orientación Social",,Ayacucho,1432,,,"San Fernando","San Fernando","San Fernando","Buenos Aires",Argentina,1,,,-34.4439254,-58.5566859,,1,NO,SI,NO,NO,NO,NO,NO,,,,,,,,4746-4523,vih@sanfernando.gov.ar,,"Responsable: Mariano Schettini",www.facebook.com/vihsanfernando,,,,,,,,,,,,,,,,,,,,,,,,,,,,,,,,,,,,,NO,NO,NO,NO,NO,NO,,,
108222,"Centro de Salud ""cristina Cornou""",,Dorrego,2766,,,,Moreno,Moreno,"Buenos Aires",Argentina,1,,,-34.645838,-58.78802,,0.9,SI,NO,NO,NO,NO,NO,NO,,,"Lunes a Viernes de 9:00 a 21:00 hs.","Referente: María Rodríguez",,,,,,,,,,,,,,,,,,,,,,,,,,,,,,,,,,,,,,,,,,,,,NO,NO,NO,NO,NO,NO,,,
108232,"Centro de Salud Eva Peron",,Catamarca,2166,,,"Mar Del Plata","Mar Del Plata","General Pueyrredón","Buenos Aires",Argentina,1,,,-38.0006633,-57.5549009,,0.9,SI,NO,NO,NO,NO,NO,NO,,,"Lunes a Viernes de 10:00 a 20:30 hs.","Responsable: Marta Guerra",,,,,,,,,,,,,,,,,,,,,,,,,,,,,,,,,,,,,,,,,,,,,NO,NO,NO,NO,NO,NO,,,
108242,"CAPS Mercedes Sosa",,"Av. Eva Perón (ex Pierrestegui)",,PB,Baradero,"Morón Sur","Morón Sur",Morón,"Buenos Aires",Argentina,1,,,-34.6332859,-58.6357,1,0.5,SI,NO,NO,NO,NO,NO,NO,,,,,,,,,"(011) 4697-0312",,"Lunes a Viernes de 8 a 17 Hs.",,,,,,,,,,,,,,,,,,,,,,,,,,,1,"(011) 4697-0312",,"Lunes a Viernes de 8 a 17 Hs.",,,,"ofrece asesoramiento y realiza interrupción legal ",,,,NO,NO,NO,NO,NO,NO,,,
108332,"Centro de Salud 8 De Octubre","Centro de Salud Público",Marañon,2220,,"Sanchez De Bustamante Barrio San Jorge","Villa De Mayo","Villa De Mayo","Malvinas Argentinas","Buenos Aires",Argentina,1,,,-34.51719569999999,-58.6827121,,0.9,NO,NO,SI,NO,NO,NO,NO,,,,,,,,,,,,,,,,,,,,,,,,,,,,,,,,,,,,,,,,,,,,,,,,,NO,NO,NO,NO,NO,NO,,,
108352,"Centro de Salud Alfredo Villar",,Formosa,,,"Corrientes  Bo. Ovejero Urquiza - Maquinista F. Savio","Maquinista F. Savio Este","Maquinista F. Savio Este",Escobar,"Buenos Aires",Argentina,1,,,-34.6036844,-58.3815591,,0.5,NO,NO,SI,NO,NO,NO,NO,,,,,,,,,,,,,,,03488-481136,,,"Sin Dato (pendiente De Resolución)",,,,,,,,,,,,,,,,,,,,,,,,,,,,,,,NO,NO,NO,NO,NO,NO,,,
108362,"Centro de Salud Almafuerte",,"Gregoria Pérez",131,,,"Morón Sur","Morón Sur",Morón,"Buenos Aires",Argentina,-1,,,-34.6332859,-58.6357,1,0.5,SI,NO,NO,NO,NO,NO,NO,,,,,,,,,"(011) 4697-9407",,,"Región Sanitaria Vii - Ugc 6",,,,,,,,,,,,,,,,,,,,,,,,,,0,,,,,,,,,,,NO,NO,NO,NO,NO,NO,,,
108372,"Centro de Salud Almirante Brown",,"Gral. Andrés",3010,,"Alemania - El Talar De Pacheco","El Talar","El Talar",Tigre,"Buenos Aires",Argentina,1,,,-34.4840067,-58.6609171,,0.9,NO,NO,SI,NO,NO,NO,NO,,,,,,,,,,,,,,,"(011) 4512-9986",,,"Dra. Patricia Fernanda Galardo M.P.N° 444.959 Por Disposición N° 3125 Del 30-11-2011",,,,,,,,,,,,,,,,,,,,,,,,,,,,,,,NO,NO,NO,NO,NO,NO,,,
108382,"Centro de Salud Altamirano",,"Sebastián Echeverría","sin número",,"Los Nogales",Brandsen,Brandsen,Brandsen,"Buenos Aires",Argentina,1,,,-35.1739889,-58.23643010000001,,0.7,NO,SI,NO,NO,NO,NO,NO,,,,,,,,,,,,,,,,,,,,,,,,,,,,,,,,,,,,,,,,,,,,,,,,,NO,NO,NO,NO,NO,NO,,,
108392,"Centro de Salud Ara Gral. Belgrano","Centro de Salud Público","Valparaiso ",,,"San Martin Y Cangallo","Pablo Nogués","Pablo Nogués","Malvinas Argentinas","Buenos Aires",Argentina,1,,,-34.4785687,-58.7057233,,0.5,NO,NO,SI,NO,NO,NO,NO,,,,,,,,,,,,,,,"(02320) 484893",,,,,,,,,,,,,,,,,,,,,,,,,,,,,,,,,,NO,NO,NO,NO,NO,NO,,,
108402,"Centro de Salud Aurora Peñalba",,"Rio Turbio Nº 35",,,,"Belen De Escobar","Belen De Escobar",Escobar,"Buenos Aires",Argentina,1,,,-34.3611101,-58.7769169,,0.9,NO,NO,SI,NO,NO,NO,NO,,,,,,,,,,,,,,,,,,"Dr. Cristian Andrés Fusco, M.P. N° 56.414",,,,,,,,,,,,,,,,,,,,,,,,,,,,,,,NO,NO,NO,NO,NO,NO,,,
108412,"Centro de Salud Azucena Villaflor",,"Av. Mitre",1340,,,Avellaneda,Avellaneda,Avellaneda,"Buenos Aires",Argentina,1,,,-34.66556610000001,-58.3590551,,0.9,SI,NO,NO,NO,NO,NO,NO,,,"Lunes a Viernes 9 a 20",,,,,,,,,,,,,,,,,,,,,,,,,,,,,,,,,,,,,,,,,,,,,,NO,NO,NO,NO,NO,NO,,,
108422,"Centro de Salud Baires",,"El Cano",960,,,"Don Torcuato Este","Don Torcuato Este",Tigre,"Buenos Aires",Argentina,1,,,-34.6036844,-58.3815591,,0.5,NO,NO,SI,NO,NO,NO,NO,,,,,,,,,,,,,,,"(011) 4513-2532",,,"Dr. Guillermo César Valvarde, M.P. N° 49.985",,,,,,,,,,,,,,,,,,,,,,,,,,,,,,,NO,NO,NO,NO,NO,NO,,,
108432,"Centro de Salud Bajo Campodonico",,"Ruta  1001",,,"Camino Real Barrio Bajo Tala","Rio Tala","Rio Tala","San Pedro","Buenos Aires",Argentina,1,,,-33.7692611,-59.6394599,,0.5,NO,NO,SI,NO,NO,NO,NO,,,,,,,,,,,,,,,,,,"Sin Informes",,,,,,,,,,,,,,,,,,,,,,,,,,,,,,,NO,NO,NO,NO,NO,NO,,,
108442,"Centro de Salud Barrio 9 De Julio",,"Calle 77",4866,,,Necochea,Necochea,Necochea,"Buenos Aires",Argentina,1,,,-38.5539155,-58.75771030000001,,0.9,NO,NO,SI,NO,NO,NO,NO,,,,,,,,,,,,,,,02262-420124,,,"Dra. Valentina Marisa Tullio, M.P. N° 93.162",,,,,,,,,,,,,,,,,,,,,,,,,,,,,,,NO,NO,NO,NO,NO,NO,,,
108452,"Centro de Salud Barrio Del Este",,"Pres. José Evaristo Uriburu",1350,,,"Trenque Lauquen","Trenque Lauquen","Trenque Lauquen","Buenos Aires",Argentina,1,,,-35.9732789,-62.7325973,,0.5,NO,NO,SI,NO,NO,NO,NO,,,,,,,,,,,,,,,,,,"Dr Reyes Pablo Avier Mp 113.252",,,,,,,,,,,,,,,,,,,,,,,,,,,,,,,NO,NO,NO,NO,NO,NO,,,
108482,"Centro de Salud Barrio Salas",,Salas,,,Chutro,"Roberto De Vicenzo","Roberto De Vicenzo",Pilar,"Buenos Aires",Argentina,1,,,-34.6036844,-58.3815591,,0.5,NO,NO,SI,NO,NO,NO,NO,,,,,,,,,,,,,,,,,,"Ana Valentinuz",,,,,,,,,,,,,,,,,,,,,,,,,,,,,,,NO,NO,NO,NO,NO,NO,,,
108512,"Centro de Salud Barrio Trocha",,"Sebastian Dray",,,"Agustin Magaldi Barrio Trocha",Salto,Salto,Salto,"Buenos Aires",Argentina,1,,,-34.295047,-60.24737870000001,,0.5,NO,NO,SI,NO,NO,NO,NO,,,,,,,,,,,,,,,02474-425332,,,"Sin Dato",,,,,,,,,,,,,,,,,,,,,,,,,,,,,,,NO,NO,NO,NO,NO,NO,,,
108522,"Centro de Salud Benavidez",,Alvear,,,Marabotto,Benavidez,Benavidez,Tigre,"Buenos Aires",Argentina,1,,,-34.4151715,-58.6867547,,0.5,NO,NO,SI,NO,NO,NO,NO,,,,,,,,,,,,,,,"(03327) 48-2904",,,"Odontólogo Luis Nacur, M.P. N° 42.316",,,,,,,,,,,,,,,,,,,,,,,,,,,,,,,NO,NO,NO,NO,NO,NO,,,
108532,"Centro de Salud Bertres",,Azcuénaga,1745,,,"San Fernando","San Fernando","San Fernando","Buenos Aires",Argentina,1,,,-34.4583328,-58.576513,,0.9,NO,SI,NO,NO,NO,NO,NO,,,,,,,,4714-6214,,,"Responsable: Adriana Bravo",,,,,,,,,,,,,,,,,,,,,,,,,,,,,,,,,,,,,,NO,NO,NO,NO,NO,NO,,,
108542,"Centro de Salud Candido Castelo",,"Aristóbulo Del Valle",,,Bramante,"San Miguel","San Miguel","San Miguel","Buenos Aires",Argentina,1,,,-34.5633599,-58.7360928,,0.7,NO,NO,SI,NO,NO,NO,NO,,,,,,,,,,,,,,,011-44557326,,,"Sin Dato (pendiente De Resolución)",,,,,,,,,,,,,,,,,,,,,,,,,,,,,,,NO,NO,NO,NO,NO,NO,,,
108552,"Centro de Salud Carolina Ii","Centro de salud",Garín,2666,,"San Fernando","Florencio Varela","Florencio Varela","Florencio Varela","Buenos Aires",Argentina,1,,,-34.7965806,-58.2760119,1,0.5,SI,NO,SI,SI,NO,SI,NO,,,,,,,,,,,,,,,"(02229) 45-3894",,,"Sin Dato (pendiente De Resolución)",,,,,,,,,,,,,,,,,,02229-453894,,,,,,,,,,,,,NO,NO,NO,NO,NO,NO,,,
108562,"Centro de Salud Chapadmalal",,"Ruta  11",549,,,Miramar,Miramar,"General Alvarado","Buenos Aires",Argentina,1,,,-38.2613065,-57.8404601,,0.9,NO,NO,SI,NO,NO,NO,NO,,,,,,,,,,,,,,,,,,"Sin Dato",,,,,,,,,,,,,,,,,,,,,,,,,,,,,,,NO,NO,NO,NO,NO,NO,,,
108572,"Centro de Salud Coronel Dorrego","Centro de salud","Las Retamas",888,,,"Ingeniero Maschwitz","Ingeniero Maschwitz",Escobar,"Buenos Aires",Argentina,1,,,-34.3941707,-58.7551389,1,0.9,SI,NO,SI,SI,NO,SI,NO,,,,,,,,,,,,,,,03488-446198,,,"Sin Dato (pendiente De Resolución)",,,,,,,,,,,,,,,,,,03488-446198,,,,,,,,,,,,,NO,NO,NO,NO,NO,NO,,,
108582,"Centro de Salud Crisol",,"Martín Rodríguez",2600,,Tucumán,"San Fernando","San Fernando","San Fernando","Buenos Aires",Argentina,1,,,-34.4619932,-58.5509394,,0.9,NO,SI,SI,NO,NO,NO,NO,,,,,,,,4746-4126,,,"Responsable: Mariana Vila",,,,"(011) 4746-4126",,,"Sin Dato",,,,,,,,,,,,,,,,,,,,,,,,,,,,,,,NO,NO,NO,NO,NO,NO,,,
108602,"Centro de Salud Doctor Gelpi",,Miró,,,Batbeder,"Castelar Sur","Castelar Sur",Morón,"Buenos Aires",Argentina,-1,,,-34.6332859,-58.6357,1,0.5,SI,NO,NO,NO,NO,NO,NO,,,,,,,,,"(011) 4692-5547",,,"Región Sanitaria Vii - Ugc 5",,,,,,,,,,,,,,,,,,,,,,,,,,0,,,,,,,,,,,NO,NO,NO,NO,NO,NO,,,
108622,"Centro de Salud Don Jose","Centro de salud","El Indio",57,,,"Florencio Varela","Florencio Varela","Florencio Varela","Buenos Aires",Argentina,1,,,-34.7950894,-58.3119758,1,1,SI,NO,SI,SI,NO,SI,NO,,,,,,,,,,,,,,,"(011) 4213-1731",,,"Sin Dato (pendiente De Resolución)",,,,,,,,,,,,,,,,,,011-42131731,,,,,,,,,,,,,NO,NO,NO,NO,NO,NO,,,
108632,"Centro de Salud Don Torcuato",,España,1450,,,"Don Torcuato Este","Don Torcuato Este",Tigre,"Buenos Aires",Argentina,1,,,-34.6036844,-58.3815591,,0.5,NO,NO,SI,NO,NO,NO,NO,,,,,,,,,,,,,,,011-45132533,,,"Dra. Maria Aurelia Osorio Mp 56.686",,,,,,,,,,,,,,,,,,,,,,,,,,,,,,,NO,NO,NO,NO,NO,NO,,,
108682,"Centro de Salud Dr. Finochietto",,"Ruta Prov.  202",,,,Virreyes,Virreyes,"San Fernando","Buenos Aires",Argentina,1,,,-34.4719532,-58.59714770000001,,0.7,NO,NO,SI,NO,NO,NO,NO,,,,,,,,,,,,,,,011-47146492,,,"Sin Dato (pendiente De Resolución)",,,,,,,,,,,,,,,,,,,,,,,,,,,,,,,NO,NO,NO,NO,NO,NO,,,
108692,"Centro de Salud Dr. Gabriel Fanin Charlone",,"Dr. Fanin",,,Mordadi,"Coronel Charlone","Coronel Charlone","General Villegas","Buenos Aires",Argentina,1,,,-34.6743046,-63.36893959999999,,0.5,NO,NO,SI,NO,NO,NO,NO,,,,,,,,,,,,,,,03388-490078,,,"Dr Carlos Alberto Palombo Mp 444198",,,,,,,,,,,,,,,,,,,,,,,,,,,,,,,NO,NO,NO,NO,NO,NO,,,
108732,"Centro de Salud Dr. Luis Resio",,"Horacio Dupuy",,,"Churich  - Garin",Garin,Garin,Escobar,"Buenos Aires",Argentina,1,,,-34.4224358,-58.73775479999999,,0.5,NO,NO,SI,NO,NO,NO,NO,,,,,,,,,,,,,,,03488-477862,,,"Sin Dato (pendiente De Resolución)",,,,,,,,,,,,,,,,,,,,,,,,,,,,,,,NO,NO,NO,NO,NO,NO,,,
108742,"Centro de Salud Dr. Ramón Carrillo",,"Manuela Pedraza",750,,,Hurlingham,Hurlingham,Hurlingham,"Buenos Aires",Argentina,1,,,-34.6194485,-58.6203302,,0.9,NO,NO,SI,NO,NO,NO,NO,,,,,,,,,,,,,,,"(011) 4459-9022",,,"Dra. María Guadalupe Sartor, M.P. N° 53.557",,,,,,,,,,,,,,,,,,,,,,,,,,,,,,,NO,NO,NO,NO,NO,NO,,,
108752,"Centro de Salud Dr. Ramon Carrillo De Salto-barrio",,"Charras Y Troncoso",93,,Lira,Salto,Salto,Salto,"Buenos Aires",Argentina,1,,,-34.2995474,-60.2399909,,0.5,NO,NO,SI,NO,NO,NO,NO,,,,,,,,,,,,,,,02474-422838,,,"Gladys Nolessi",,,,,,,,,,,,,,,,,,,,,,,,,,,,,,,NO,NO,NO,NO,NO,NO,,,
108762,"Centro de Salud Dr. Ramón Carrillo N° 3",,"Av. Central","sin número",,"Calle 200","Ciudad Evita","Ciudad Evita","La Matanza","Buenos Aires",Argentina,1,,,-34.7183793,-58.5615323,1,0.7,NO,SI,NO,NO,NO,NO,NO,,,,,,,,(011)4695-3917,,,,,,,,,,,,,,,,,,,,,,,,,,,,,,,,,,,,,,,,,NO,NO,NO,NO,NO,NO,,,
108782,"Centro de Salud Dr. Springolo",,"General Galán",655,,,"El Palomar","El Palomar",Morón,"Buenos Aires",Argentina,-1,,,-34.686883,-58.5963436,1,89.999,SI,NO,NO,NO,NO,NO,NO,,,,,,,,,"(011) 4751-8961/3791",,,"Región Sanitaria Vii - Ugc 3 - 3 Dispensers",,,,,,,,,,,,,,,,,,,,,,,,,,0,,,,,,,,,,,NO,NO,NO,NO,NO,NO,,,
108832,"Centro de Salud Federico Rosito",,"Paraje San Tosquera",,,,"San Pedro","San Pedro","San Pedro","Buenos Aires",Argentina,1,,,-33.6757835,-59.66286640000001,,0.5,NO,NO,SI,NO,NO,NO,NO,,,,,,,,,,,,,,,,,,"Sin Dato",,,,,,,,,,,,,,,,,,,,,,,,,,,,,,,NO,NO,NO,NO,NO,NO,,,
108842,"Centro de Salud Fomento De Queuqen",,"Calle 519",2267,,,Quequen,Quequen,Necochea,"Buenos Aires",Argentina,1,,,-38.5603974,-58.7108752,,0.9,NO,NO,SI,NO,NO,NO,NO,,,,,,,,,,,,,,,,,,"Dr. Norberto Masante, M.P. N° 91.371",,,,,,,,,,,,,,,,,,,,,,,,,,,,,,,NO,NO,NO,NO,NO,NO,,,
108872,"Centro de Salud Integral ?Sandra Cabrera?",,"Calle 1",1723,,,"City Bell","City Bell","La Plata","Buenos Aires",Argentina,1,,,-34.8691775,-58.0558686,,0.9,NO,SI,NO,NO,NO,NO,NO,,,,,,,,,,,,,,,,,,,,,,,,,,,,,,,,,,,,,,,,,,,,,,,,,NO,NO,NO,NO,NO,NO,,,
108902,"Centro de Salud Juan Carlos Selles",,"Pablo Marín",,,"Scalabrini Ortíz º",Garin,Garin,Escobar,"Buenos Aires",Argentina,1,,,-34.4224358,-58.73775479999999,,0.5,NO,NO,SI,NO,NO,NO,NO,,,,,,,,,,,,,,,"(02320) 49-3444",,,"Sin Dato (pendiente De Resolución)",,,,,,,,,,,,,,,,,,,,,,,,,,,,,,,NO,NO,NO,NO,NO,NO,,,
108912,"Centro de Salud Juana Azurduy",,Berlín,3870,,,"Castelar Sur","Castelar Sur",Morón,"Buenos Aires",Argentina,1,,,-34.6332859,-58.6357,1,0.5,SI,NO,NO,NO,NO,NO,NO,,,,,,,,,"(011) 4692-5399/5398",,"Lunes a Viernes de 8 a 16 Hs.",,,,,,,,,,,,,,,,,,,,,,,,,,,1,"(011) 4692-5399/5398",,"Lunes a Viernes de 8 a 16 Hs.",,,,"ofrece asesoramiento sobre interrupción legal del ",,,,NO,NO,NO,NO,NO,NO,,,
108922,"Centro de Salud La Casita",,"Serrano 2773 (entre Primera Junta",2733,,Salerno),"San Miguel","San Miguel","San Miguel","Buenos Aires",Argentina,1,,,-34.5304914,-58.7209307,,0.5,NO,NO,SI,NO,NO,NO,NO,,,,,,,,,,,,,,,,,,"Sin Dato (pendiente De Resolución)",,,,,,,,,,,,,,,,,,,,,,,,,,,,,,,NO,NO,NO,NO,NO,NO,,,
108932,"Centro de Salud La Loma",,"Los Helechos","sin número",,"Los Tulipanes","Barrio La Loma","Barrio La Loma",Luján,"Buenos Aires",Argentina,1,,,-34.65697189999999,-58.3982609,,0.7,NO,NO,SI,NO,NO,NO,NO,,,,,,,,,,,,,,,011-1554501921,,,"Sin Dato",,,,,,,,,,,,,,,,,,,,,,,,,,,,,,,NO,NO,NO,NO,NO,NO,,,
108952,"Centro de Salud Las Canaletas",,"Juan Ismael Gimenez",1600,,,"San Pedro","San Pedro","San Pedro","Buenos Aires",Argentina,1,,,-33.6578547,-59.71224530000001,,0.7,NO,NO,SI,NO,NO,NO,NO,,,,,,,,,,,,,,,03329-423524,,,"Sin Dato",,,,,,,,,,,,,,,,,,,,,,,,,,,,,,,NO,NO,NO,NO,NO,NO,,,
108962,"Centro de Salud Las Tunas Y A. Del Talar",,Sacristi,,,Mosconi,"General Pacheco","General Pacheco",Tigre,"Buenos Aires",Argentina,1,,,-34.4529709,-58.64298660000001,,0.5,NO,NO,SI,NO,NO,NO,NO,,,,,,,,,,,,,,,03327-441044,,,"Dra. María Gabriela Festino, M.P. N° 444.673 Por Disposición N° 2935 Del 10-11-2011",,,,,,,,,,,,,,,,,,,,,,,,,,,,,,,NO,NO,NO,NO,NO,NO,,,
109012,"Centro de Salud Malvinas",,"Los Quebrachos","sin número",,"El Car","Florencio Varela","Florencio Varela","Florencio Varela","Buenos Aires",Argentina,1,,,-34.7965806,-58.27601199999999,,0.5,SI,NO,NO,NO,NO,NO,NO,4268-2052,,,,,,,,,,,,,,,,,,,,,,,,,,,,,,,,,,,,,,,,,,,,,,,,NO,NO,NO,NO,NO,NO,,,
109032,"Centro de Salud Maria Auxiliadora William Morris",,"Santa María",2500,,,"Del Viso","Del Viso",Pilar,"Buenos Aires",Argentina,1,,,-34.4465119,-58.78575479999999,,0.9,NO,NO,SI,NO,NO,NO,NO,,,,,,,,,,,,,,,02320-472200,,,"Sin Dato",,,,,,,,,,,,,,,,,,,,,,,,,,,,,,,NO,NO,NO,NO,NO,NO,,,
109042,"Centro de Salud María Isabel",,Arenales,3220,,,"San Fernando","San Fernando","San Fernando","Buenos Aires",Argentina,1,,,-34.4561012,-58.5690992,,0.9,NO,SI,SI,NO,NO,NO,NO,,,,,,,,4746-1941,,,"Responsable: Marisa Barroso, Pablo Reyes.",,,,"(011) 4746-1941",,,"Sin Dato (pendiente De Resolución)",,,,,,,,,,,,,,,,,,,,,,,,,,,,,,,NO,NO,NO,NO,NO,NO,,,
109052,"Centro de Salud Mateo Sberg",,"Joaquín V. Gonzalez",1230,,,"San Pedro","San Pedro","San Pedro","Buenos Aires",Argentina,1,,,-33.6865964,-59.6590769,,0.9,NO,NO,SI,NO,NO,NO,NO,,,,,,,,,,,,,,,03329-424070,,,"Sin Dato",,,,,,,,,,,,,,,,,,,,,,,,,,,,,,,NO,NO,NO,NO,NO,NO,,,
109062,"Centro de Salud Mental Meditar",,"C. Zibechi",74,"Piso 1°",,"Benito Juarez","Benito Juarez","Benito Juárez","Buenos Aires",Argentina,1,,,-37.6743158,-59.8048962,,0.5,NO,NO,SI,NO,NO,NO,NO,,,,,,,,,,,,,,,,,,"Dra. Miriam Hebe Guevara, M.P. N° 18.337",,,,,,,,,,,,,,,,,,,,,,,,,,,,,,,NO,NO,NO,NO,NO,NO,,,
109072,"Centro de Salud Municipal N° 1",,Yapeyú,37,,,"Adolfo Gonzales Chaves","Adolfo Gonzales Chaves","Adolfo Gonzales Chaves","Buenos Aires",Argentina,1,,,-38.0287346,-60.1124617,,0.7,NO,NO,SI,NO,NO,NO,NO,,,,,,,,,,,,,,,,,,"Dr. Silvio Alejandro Gabriel Tarducci, M.P. N° 111.825",,,,,,,,,,,,,,,,,,,,,,,,,,,,,,,NO,NO,NO,NO,NO,NO,,,
109082,"Centro de Salud N° 1 De La Plata",,"Calle 144",60,,,"La Plata","La Plata","La Plata","Buenos Aires",Argentina,1,,,-34.9350944,-58.00806830000001,,0.9,NO,NO,SI,NO,NO,NO,NO,,,,,,,,,,,,,,,"(0221) 450-9717",,,"Sin Dato",,,,,,,,,,,,,,,,,,,,,,,,,,,,,,,NO,NO,NO,NO,NO,NO,,,
109092,"Centro de Salud N° 1 De Mar Del Plata",,"Av. Colon",3294,,,"Mar Del Plata","Mar Del Plata","General Pueyrredón","Buenos Aires",Argentina,1,,,-37.999897,-57.5572612,,0.9,NO,NO,SI,NO,NO,NO,NO,,,,,,,,,,,,,,,0223-4932309,,,"Sin Dato",,,,,,,,,,,,,,,,,,,,,,,,,,,,,,,NO,NO,NO,NO,NO,NO,,,
109132,"Centro de Salud N° 11 De La Plata",,"9 De Julio",,,Alem,"La Plata","La Plata","La Plata","Buenos Aires",Argentina,1,,,-34.9204948,-57.95356570000001,,0.5,NO,NO,SI,NO,NO,NO,NO,,,,,,,,,,,,,,,"(0221) 474-1804",,,"Sin Dato",,,,,,,,,,,,,,,,,,,,,,,,,,,,,,,NO,NO,NO,NO,NO,NO,,,
109152,"Centro de Salud N° 13",,"Calle 41",770,,,Gonnet,Gonnet,"La Plata","Buenos Aires",Argentina,1,,,-34.9114998,-57.9623001,,0.9,NO,SI,NO,NO,NO,NO,NO,,,,,,,,,,,,,,,,,,,,,,,,,,,,,,,,,,,,,,,,,,,,,,,,,NO,NO,NO,NO,NO,NO,,,
109172,"Centro de Salud N° 16 De La Plata",,"Calle 66",174,,,"La Plata","La Plata","La Plata","Buenos Aires",Argentina,1,,,-34.9131482,-57.9195566,,0.9,NO,SI,SI,NO,NO,NO,NO,,,,,,,,,,,,,,,"(0221) 450-4767",,,"Sin Dato",,,,,,,,,,,,,,,,,,,,,,,,,,,,,,,NO,NO,NO,NO,NO,NO,,,
109182,"Centro de Salud N° 17 De La Plata",,"Rosa Laura",26,,,"La Plata","La Plata","La Plata","Buenos Aires",Argentina,1,,,-34.9204948,-57.95356570000001,,0.5,NO,NO,SI,NO,NO,NO,NO,,,,,,,,,,,,,,,"(0221) 473-2299",,,"Sin Dato",,,,,,,,,,,,,,,,,,,,,,,,,,,,,,,NO,NO,NO,NO,NO,NO,,,
109192,"Centro de Salud N° 19 De La Plata",,"Calle 4",,,"Calle 611","Villa Elvira","Villa Elvira","La Plata","Buenos Aires",Argentina,1,,,-34.9039971,-57.92249849999999,,0.9,NO,SI,SI,NO,NO,NO,NO,,,,,,,,,,,,,,,"(0221) 486-1836",,,"Sin Dato",,,,,,,,,,,,,,,,,,,,,,,,,,,,,,,NO,NO,NO,NO,NO,NO,,,
109212,"Centro de Salud N° 2 De La Plata",,"Calle 66",143,,,"La Plata","La Plata","La Plata","Buenos Aires",Argentina,1,,,-34.9340682,-58.00707430000001,,0.9,NO,SI,SI,NO,NO,NO,NO,,,,,,,,,,,,,,,"(0221) 450-9599",,,"Sin Dato",,,,,,,,,,,,,,,,,,,,,,,,,,,,,,,NO,NO,NO,NO,NO,NO,,,
109222,"Centro de Salud N° 22 De La Plata",,"Estación Ignacio Correa",,,,"La Plata","La Plata","La Plata","Buenos Aires",Argentina,1,,,-34.9204948,-57.95356570000001,,0.5,NO,NO,SI,NO,NO,NO,NO,,,,,,,,,,,,,,,"(0221) 491-2084",,,"Sin Dato",,,,,,,,,,,,,,,,,,,,,,,,,,,,,,,NO,NO,NO,NO,NO,NO,,,
109242,"Centro de Salud N° 22 Santa Rita De Berazategui",,"Calle 359",304,,,Ranelagh,Ranelagh,Berazategui,"Buenos Aires",Argentina,1,,,-34.7941397,-58.21311619999999,,0.9,NO,NO,SI,NO,NO,NO,NO,,,,,,,,,,,,,,,,,,"Sin Dato",,,,,,,,,,,,,,,,,,,,,,,,,,,,,,,NO,NO,NO,NO,NO,NO,,,
109252,"Centro de Salud N° 23 Rio Lujan De Campana",,"Ruta  12",,,,Campana,Campana,Campana,"Buenos Aires",Argentina,1,,,-34.1633346,-58.95926429999999,,0.5,NO,NO,SI,NO,NO,NO,NO,,,,,,,,,,,,,,,,,,"Sin Dato (pendiente De Resolución)",,,,,,,,,,,,,,,,,,,,,,,,,,,,,,,NO,NO,NO,NO,NO,NO,,,
109262,"Centro de Salud N° 26 Virreyes De San Fernando",,Maipú,2354,,,Virreyes,Virreyes,"San Fernando","Buenos Aires",Argentina,1,,,-34.451488,-58.56237699999999,,0.9,NO,SI,SI,NO,NO,NO,NO,,,,,,,,,,,,,,,011-47464132,,,"Sin Dato (pendiente De Resolución)",,,,,,,,,,,,,,,,,,,,,,,,,,,,,,,NO,NO,NO,NO,NO,NO,,,
109272,"Centro de Salud N° 27 De San Fernando",,"25 De Mayo",2290,,,"San Fernando","San Fernando","San Fernando","Buenos Aires",Argentina,1,,,-34.446511,-58.56703289999999,,0.9,NO,SI,SI,NO,NO,NO,NO,,,,,,,,,,,,,,,011-47443138,,,"Sin Dato (pendiente De Resolución)",,,,,,,,,,,,,,,,,,,,,,,,,,,,,,,NO,NO,NO,NO,NO,NO,,,
109282,"Centro de Salud N° 28 De La Plata",,"Calle 13",494,,,"Manuel B. Gonnet","Manuel B. Gonnet","La Plata","Buenos Aires",Argentina,1,,,-34.8889618,-58.021431,,0.5,NO,NO,SI,NO,NO,NO,NO,,,,,,,,,,,,,,,0221-4711068,,,"Sin Dato",,,,,,,,,,,,,,,,,,,,,,,,,,,,,,,NO,NO,NO,NO,NO,NO,,,
109292,"Centro de Salud N° 32 De La Plata",,"Calle 510",31,,,"La Plata","La Plata","La Plata","Buenos Aires",Argentina,1,,,-34.8950389,-58.0102604,,0.9,NO,NO,SI,NO,NO,NO,NO,,,,,,,,,,,,,,,"(0221) 471-0037",,,"Sin Dato",,,,,,,,,,,,,,,,,,,,,,,,,,,,,,,NO,NO,NO,NO,NO,NO,,,
109302,"Centro de Salud N° 33 De La Plata",,"Calle 142",,,"Calle 520","La Plata","La Plata","La Plata","Buenos Aires",Argentina,1,,,-34.9424599,-57.99351069999999,,0.9,NO,NO,SI,NO,NO,NO,NO,,,,,,,,,,,,,,,0221-4700625,,,"Sin Dato",,,,,,,,,,,,,,,,,,,,,,,,,,,,,,,NO,NO,NO,NO,NO,NO,,,
109322,"Centro de Salud N° 40 De La Plata",,"Calle 59",8,,,"La Plata","La Plata","La Plata","Buenos Aires",Argentina,1,,,-34.9025579,-57.96860710000001,,0.9,NO,NO,SI,NO,NO,NO,NO,,,,,,,,,,,,,,,"(0221) 427-3164",,,"Sin Dato",,,,,,,,,,,,,,,,,,,,,,,,,,,,,,,NO,NO,NO,NO,NO,NO,,,
109332,"Centro de Salud N° 44",,"Calle 159",54,,,"Los Hornos","Los Hornos","La Plata","Buenos Aires",Argentina,1,,,-34.9326791,-57.964572,,0.7,NO,NO,SI,NO,NO,NO,NO,,,,,,,,,,,,,,,,,,"Dra. María Valeria Menoyo, M.P. N° 110.896",,,,,,,,,,,,,,,,,,,,,,,,,,,,,,,NO,NO,NO,NO,NO,NO,,,
109362,"Centro de Salud N° 6 De La Plata",,"Calle 122",81,,,"La Plata","La Plata","La Plata","Buenos Aires",Argentina,1,,,-34.9295774,-57.90876540000001,,0.9,NO,NO,SI,NO,NO,NO,NO,,,,,,,,,,,,,,,"(0221) 4520077",,,"Sin Dato",,,,,,,,,,,,,,,,,,,,,,,,,,,,,,,NO,NO,NO,NO,NO,NO,,,
109392,"Centro de Salud N° 9 De La Plata",,"Calle 3",528,,,"La Plata","La Plata","La Plata","Buenos Aires",Argentina,1,,,-34.9056328,-57.9528253,,1,NO,NO,SI,NO,NO,NO,NO,,,,,,,,,,,,,,,"(0221) 4249595",,,"Sin Dato",,,,,,,,,,,,,,,,,,,,,,,,,,,,,,,NO,NO,NO,NO,NO,NO,,,
109412,"Centro de Salud Nº 10",,"Calle 208","sin número",,"Calle 516",Abasto,Abasto,"La Plata","Buenos Aires",Argentina,1,,,-34.9759114,-58.1016722,,0.7,NO,SI,SI,NO,NO,NO,NO,,,,,,,,,,,,,,,,,,,,,,,,,,,,,,,,,,,,,,,,,,,,,,,,,NO,NO,NO,NO,NO,NO,,,
109422,"Centro de Salud Nº 11",,"Calle 143","sin número",,"Calle 414 Bis","Arturo Seguí","Arturo Seguí","La Plata","Buenos Aires",Argentina,1,,,-34.885929327939,-58.124453324329,,0.7,NO,SI,NO,NO,NO,NO,NO,,,,,,,,,,,,,,,,,,,,,,,,,,,,,,,,,,,,,,,,,,,,,,,,,NO,NO,NO,NO,NO,NO,,,
109432,"Centro de Salud Nº 12",,"Calle 138","sin número",,"Calle 481",Gorina,Gorina,"La Plata","Buenos Aires",Argentina,1,,,-34.903338492983,-58.048550953828,,0.5,NO,SI,SI,NO,NO,NO,NO,,,,,,,,,,,,,,,,,,,,,,,,,,,,,,,,,,,,,,,,,,,,,,,,,NO,NO,NO,NO,NO,NO,,,
109442,"Centro de Salud Nº 12 V. Piaggio",,Parravicini,740,,,"Villa Piaggio","Villa Piaggio","San Martín","Buenos Aires",Argentina,1,,,-34.6036844,-58.3815591,,0.5,NO,SI,NO,NO,NO,NO,NO,,,,,,,,"4830 0710",,,,,,,,,,,,,,,,,,,,,,,,,,,,,,,,,,,,,,,,,NO,NO,NO,NO,NO,NO,,,
109452,"Centro de Salud Nº 13",,Azcuénaga,4061,,,"Villa Lynch","Villa Lynch","San Martín","Buenos Aires",Argentina,1,,,-34.5927921,-58.5249391,,0.9,NO,SI,NO,NO,NO,NO,NO,,,,,,,,4830-0709,,"Consejería: Lunes de 9 a 11 hs. y Viernes 9 a 11 hs.",,,,,,,,,,,,,,,,,,,,,,,,,,,,,,,,,,,,,,,NO,NO,NO,NO,NO,NO,,,
109462,"Centro de Salud Nº 14",,"Calle 16","sin número",,"Calle 529",Tolosa,Tolosa,"La Plata","Buenos Aires",Argentina,1,,,-34.8992653,-57.9830589,,0.5,NO,SI,SI,NO,NO,NO,NO,,,,,,,,,,,,,,,,,,,,,,,,,,,,,,,,,,,,,,,,,,,,,,,,,NO,NO,NO,NO,NO,NO,,,
109472,"Centro de Salud Nº 14 Barrio Uta",,"Bartolomé Mitre (calle 39)",1253,,,"Loma Hermosa","Loma Hermosa","San Martín","Buenos Aires",Argentina,1,,,-34.5538195,-58.56379959999999,,0.7,NO,SI,NO,NO,NO,NO,NO,,,,,,,,"4513 5120 / 4513 5124",,,,,,,,,,,,,,,,,,,,,,,,,,,,,,,,,,,,,,,,,NO,NO,NO,NO,NO,NO,,,
109482,"Centro de Salud Nº 15",,"Calle 520","sin número",,"Calle 118",Tolosa,Tolosa,"La Plata","Buenos Aires",Argentina,1,,,-34.8794769,-57.9706407,,0.7,NO,SI,SI,NO,NO,NO,NO,,,,,,,,,,,,,,,,,,,,,,,,,,,,,,,,,,,,,,,,,,,,,,,,,NO,NO,NO,NO,NO,NO,,,
109492,"Centro de Salud Nº 15",,Iberá,7456,,,"Villa Lanzone","Villa Lanzone","San Martín","Buenos Aires",Argentina,1,,,-34.6036844,-58.3815591,,0.5,NO,SI,NO,NO,NO,NO,NO,,,,,,,,4513-5121,,"Consejería: Martes y Jueves de 11 a 12 hs.",,,,,,,,,,,,,,,,,,,,,,,,,,,,,,,,,,,,,,,NO,NO,NO,NO,NO,NO,,,
109502,"Centro de Salud Nº 16",,"Pasaje A","sin número",,"Calle 66","Villa Zagala","Villa Zagala","San Martín","Buenos Aires",Argentina,1,,,-34.6036844,-58.3815591,,0.5,NO,SI,NO,NO,NO,NO,NO,,,,,,,,4830-0690,,"Consejería: Miércoles 10 a 12 hs.",,,,,,,,,,,,,,,,,,,,,,,,,,,,,,,,,,,,,,,NO,NO,NO,NO,NO,NO,,,
109512,"Centro de Salud Nº 18",,"Calle 45","sin número",,"Calle 187 bis",Olmos,Olmos,"La Plata","Buenos Aires",Argentina,1,,,-34.9873253,-58.0395519,,0.5,NO,SI,NO,NO,NO,NO,NO,,,,,,,,,,,,,,,,,,,,,,,,,,,,,,,,,,,,,,,,,,,,,,,,,NO,NO,NO,NO,NO,NO,,,
109522,"Centro de Salud Nº 19",,"La Crujía",5643,,,"Villa Libertad","Villa Libertad","San Martín","Buenos Aires",Argentina,1,,,-34.7003212,-58.6834717,,0.5,NO,SI,NO,NO,NO,NO,NO,,,,,,,,4830-0310,,"Consejería Miércoles 9.30 a 13 hs.",,,,,,,,,,,,,,,,,,,,,,,,,,,,,,,,,,,,,,,NO,NO,NO,NO,NO,NO,,,
109532,"Centro de Salud Nº 20",,"Calle 139","sin número",,"Calle 33",Romero,Romero,"La Plata","Buenos Aires",Argentina,1,,,-34.931723268059,-58.001089997484,,0.7,NO,SI,SI,NO,NO,NO,NO,,,,,,,,,,,,,,,,,,,,,,,,,,,,,,,,,,,,,,,,,,,,,,,,,NO,NO,NO,NO,NO,NO,,,
109542,"Centro de Salud Nº 21",,"Calle 131","sin número",,"Calle 639","San Lorenzo","San Lorenzo","La Plata","Buenos Aires",Argentina,1,,,-34.9527523,-57.8431275,,0.7,NO,SI,SI,NO,NO,NO,NO,,,,,,,,,,,,,,,,,,,,,,,,,,,,,,,,,,,,,,,,,,,,,,,,,NO,NO,NO,NO,NO,NO,,,
109552,"Centro de Salud Nº 22 (estación Ignacio Correa)",,"Calle 29","sin número",,"Calle 696","La Plata","La Plata","La Plata","Buenos Aires",Argentina,1,,,-34.9204948,-57.95356570000001,,0.5,NO,SI,NO,NO,NO,NO,NO,,,,,,,,,,,,,,,,,,,,,,,,,,,,,,,,,,,,,,,,,,,,,,,,,NO,NO,NO,NO,NO,NO,,,
109562,"Centro de Salud Nº 23",,"Calle 53","sin número",,"Calle 228",Etcheverry,Etcheverry,"La Plata","Buenos Aires",Argentina,1,,,-35.0275135,-58.0737978,,0.5,NO,SI,SI,NO,NO,NO,NO,,,,,,,,,,,,,,,,,,,,,,,,,,,,,,,,,,,,,,,,,,,,,,,,,NO,NO,NO,NO,NO,NO,,,
109572,"Centro de Salud Nº 24",,"Ruta 2","Km 44,5",,,"Barrio El Peligro","Barrio El Peligro","La Plata","Buenos Aires",Argentina,1,,,-35.0634746,-58.0910061,,0.5,NO,SI,SI,NO,NO,NO,NO,,,,,,,,,,,,,,,,,,,,,,,,,,,,,,,,,,,,,,,,,,,,,,,,,NO,NO,NO,NO,NO,NO,,,
109582,"Centro de Salud Nº 25",,"Calle 514","sin número",,"Calle 12",Ringuelet,Ringuelet,"La Plata","Buenos Aires",Argentina,1,,,-34.9004013,-58.0057048,,0.7,NO,SI,SI,NO,NO,NO,NO,,,,,,,,,,,,,,,,,,,,,,,,,,,,,,,,,,,,,,,,,,,,,,,,,NO,NO,NO,NO,NO,NO,,,
109592,"Centro de Salud Nº 26",,"Calle 122","sin número",,"Calle 605","Villa Elvira","Villa Elvira","La Plata","Buenos Aires",Argentina,1,,,-34.9385878,-57.8848467,,0.7,NO,SI,SI,NO,NO,NO,NO,,,,,,,,,,,,,,,,,,,,,,,,,,,,,,,,,,,,,,,,,,,,,,,,,NO,NO,NO,NO,NO,NO,,,
109602,"Centro de Salud Nº 27",,"Calle 526","sin número",,"Calle 24",Tolosa,Tolosa,"La Plata","Buenos Aires",Argentina,1,,,-34.9132666,-57.9953478,,0.7,NO,SI,SI,NO,NO,NO,NO,,,,,,,,,,,,,,,,,,,,,,,,,,,,,,,,,,,,,,,,,,,,,,,,,NO,NO,NO,NO,NO,NO,,,
109612,"Centro de Salud Nº 28",,"Calle 10","sin número",,"Calle 491",Gonnet,Gonnet,"La Plata","Buenos Aires",Argentina,1,,,-34.8973218,-57.9800708,,0.7,NO,SI,NO,NO,NO,NO,NO,,,,,,,,,,,,,,,,,,,,,,,,,,,,,,,,,,,,,,,,,,,,,,,,,NO,NO,NO,NO,NO,NO,,,
109622,"Centro de Salud Nº 29 (República De Los Niños)",,"Camino General Belgrano","sin número",,"Calle 501",Gonnet,Gonnet,"La Plata","Buenos Aires",Argentina,1,,,-34.8930282,-58.0050397,,0.7,NO,SI,SI,NO,NO,NO,NO,,,,,,,,,,,,,,,,,,,,,,,,,,,,,,,,,,,,,,,,,,,,,,,,,NO,NO,NO,NO,NO,NO,,,
109632,"Centro de Salud Nº 3",,"Calle 45","sin número",,"Calle 146","San Carlos","San Carlos","La Plata","Buenos Aires",Argentina,1,,,-34.931057,-58.00255969999999,,0.5,NO,SI,SI,NO,NO,NO,NO,,,,,,,,,,,,,,,,,,,,,,,,,,,,,,,,,,,,,,,,,,,,,,,,,NO,NO,NO,NO,NO,NO,,,
109642,"Centro de Salud Nº 3 Barrio Lindo","Centro de Salud Público",Portugal,,,Yatay,"Malvinas Argentinas","Malvinas Argentinas","Malvinas Argentinas","Buenos Aires",Argentina,1,,,-34.50771,-58.6956,,0.7,SI,NO,NO,NO,NO,NO,NO,"(011) 4296-5839",,"Lunes a Viernes de 8 a 18","Sala De Espera",,,,,,,,,,,,,,,,,,,,,,,,,,,,,,,,,,,,,,,,,,,,,NO,NO,NO,NO,NO,NO,,,
109652,"Centro de Salud Nº 3 V. Concepción",,Independencia,876,,,"Villa Concepción","Villa Concepción","San Martín","Buenos Aires",Argentina,1,,,-27.3502805,-65.5904901,,0.7,NO,SI,NO,NO,NO,NO,NO,,,,,,,,"4830-0711 / 0723",,"Consejería: Martes 13 a 15 hs.",,,,,,,,,,,,,,,,,,,,,,,,,,,,,,,,,,,,,,,NO,NO,NO,NO,NO,NO,,,
109662,"Centro de Salud Nº 31",,"Calle 186","sin número",,"Calle 492",Romero,Romero,"La Plata","Buenos Aires",Argentina,1,,,-34.9444158,-58.0948945,,0.7,NO,SI,SI,NO,NO,NO,NO,,,,,,,,,,,,,,,,,,,,,,,,,,,,,,,,,,,,,,,,,,,,,,,,,NO,NO,NO,NO,NO,NO,,,
109672,"Centro de Salud Nº 31",,Garibaldi,2727,,,"San Fernando","San Fernando","San Fernando","Buenos Aires",Argentina,1,,,-34.4575194,-58.5601401,,0.9,NO,SI,NO,NO,NO,NO,NO,,,,,,,,4746-3921,,,"Responsable: Paula Ponte, Olga Abriola",,,,,,,,,,,,,,,,,,,,,,,,,,,,,,,,,,,,,,NO,NO,NO,NO,NO,NO,,,
109682,"Centro de Salud Nº 32",,"Calle 131","sin número",,"Calle 510",Hernández,Hernández,"La Plata","Buenos Aires",Argentina,1,,,-34.9047939,-58.0203394,,0.5,NO,SI,NO,NO,NO,NO,NO,,,,,,,,,,,,,,,,,,,,,,,,,,,,,,,,,,,,,,,,,,,,,,,,,NO,NO,NO,NO,NO,NO,,,
109692,"Centro de Salud Nº 33",,"Calle 143","sin número",,"Calle 520",Romero,Romero,"La Plata","Buenos Aires",Argentina,1,,,-34.9245407,-58.0286511,,0.7,NO,SI,NO,NO,NO,NO,NO,,,,,,,,,,,,,,,,,,,,,,,,,,,,,,,,,,,,,,,,,,,,,,,,,NO,NO,NO,NO,NO,NO,,,
109702,"Centro de Salud Nº 34",,"Calle 156","sin número",,"Calle 528",,"La Plata","La Plata","Buenos Aires",Argentina,1,,,-34.9204948,-57.95356570000001,,0.5,NO,SI,SI,NO,NO,NO,NO,,,,,,,,,,,,,,,,,,,,,,,,,,,,,,,,,,,,,,,,,,,,,,,,,NO,NO,NO,NO,NO,NO,,,
109712,"Centro de Salud Nº 35",,"Calle 99","sin número",,"Calle 121","Villa Elvira","Villa Elvira","La Plata","Buenos Aires",Argentina,1,,,-34.9762268,-57.86625669999999,,0.5,NO,SI,SI,NO,NO,NO,NO,,,,,,,,,,,,,,,,,,,,,,,,,,,,,,,,,,,,,,,,,,,,,,,,,NO,NO,NO,NO,NO,NO,,,
109722,"Centro de Salud Nº 36",,"Calle 412","sin número",,"Calle 29","Villa Elisa","Villa Elisa","La Plata","Buenos Aires",Argentina,1,,,-34.8692219,-58.111122,,0.7,NO,SI,NO,NO,NO,NO,NO,,,,,,,,,,,,,,,,,,,,,,,,,,,,,,,,,,,,,,,,,,,,,,,,,NO,NO,NO,NO,NO,NO,,,
109732,"Centro de Salud Nº 37",,"Calle 137","sin número",,"Calle 79","Los Hornos","Los Hornos","La Plata","Buenos Aires",Argentina,1,,,-34.9561541,-57.9636891,,0.7,NO,SI,SI,NO,NO,NO,NO,,,,,,,,,,,,,,,,,,,,,,,,,,,,,,,,,,,,,,,,,,,,,,,,,NO,NO,NO,NO,NO,NO,,,
109742,"Centro de Salud Nº 38",,"Calle 7","sin número",,"Calle 477","City Bell","City Bell","La Plata","Buenos Aires",Argentina,1,,,-34.8624338,-58.0354477,,0.5,NO,SI,SI,NO,NO,NO,NO,,,,,,,,,,,,,,,,,,,,,,,,,,,,,,,,,,,,,,,,,,,,,,,,,NO,NO,NO,NO,NO,NO,,,
109752,"Centro de Salud Nº 39",,"Calle 412","sin número",,"Calle 116 y calle 117","Villa Elisa","Villa Elisa","La Plata","Buenos Aires",Argentina,1,,,-34.8631476,-58.1018127,,0.7,NO,SI,NO,NO,NO,NO,NO,,,,,,,,,,,,,,,,,,,,,,,,,,,,,,,,,,,,,,,,,,,,,,,,,NO,NO,NO,NO,NO,NO,,,
109762,"Centro de Salud Nº 4",,"Camino Centenario","sin número",,Arana,"Villa Elisa","Villa Elisa","La Plata","Buenos Aires",Argentina,1,,,-34.8583045,-58.07038219999999,,0.7,NO,SI,SI,NO,NO,NO,NO,,,,,,,,,,,,,,,,,,,,,,,,,,,,,,,,,,,,,,,,,,,,,,,,,NO,NO,NO,NO,NO,NO,,,
109772,"Centro de Salud Nº 41",,"Calle 84","sin número",,"Calle 131","San Lorenzo","San Lorenzo","La Plata","Buenos Aires",Argentina,1,,,-34.9628076,-57.9422232,,0.7,NO,SI,SI,NO,NO,NO,NO,,,,,,,,,,,,,,,,,,,,,,,,,,,,,,,,,,,,,,,,,,,,,,,,,NO,NO,NO,NO,NO,NO,,,
109782,"Centro de Salud Nº 42",,"Calle 149","sin número",,"Calle 35","San Carlos","San Carlos","La Plata","Buenos Aires",Argentina,1,,,-34.930101,-58.0262085,,0.7,NO,SI,SI,NO,NO,NO,NO,,,,,,,,,,,,,,,,,,,,,,,,,,,,,,,,,,,,,,,,,,,,,,,,,NO,NO,NO,NO,NO,NO,,,
109792,"Centro de Salud Nº 43",,"Calle 8","sin número",,"Calle 632","Villa Elvira","Villa Elvira","La Plata","Buenos Aires",Argentina,1,,,-34.9762268,-57.86625669999999,,0.5,NO,SI,NO,NO,NO,NO,NO,,,,,,,,,,,,,,,,,,,,,,,,,,,,,,,,,,,,,,,,,,,,,,,,,NO,NO,NO,NO,NO,NO,,,
109812,"Centro de Salud Nº 46",,"Calle 16",,,"Calle 608","Bº Altos De San Lorenzo","Bº Altos De San Lorenzo","La Plata","Buenos Aires",Argentina,1,,,-34.9192859,-57.9642948,,0.9,NO,NO,SI,NO,NO,NO,NO,,,,,,,,,,,,,,,,,,"Sin Dato",,,,,,,,,,,,,,,,,,,,,,,,,,,,,,,NO,NO,NO,NO,NO,NO,,,
109822,"Centro de Salud Nº 5",,"Calle 12","sin número",,"Calle 19","City Bell","City Bell","La Plata","Buenos Aires",Argentina,1,,,-34.8799858,-58.0600243,,0.5,NO,SI,SI,NO,NO,NO,NO,,,,,,,,,,,,,,,,,,,,,,,,,,,,,,,,,,,,,,,,,,,,,,,,,NO,NO,NO,NO,NO,NO,,,
109832,"Centro de Salud Nº 5 Dr. Ramón Carrillo",,Ocampo,"Ruta 8, Km. 18",,Maipú,"Villa Zapiola","Villa Zapiola","San Martín","Buenos Aires",Argentina,1,,,-35.04999919999999,-59.04999919999999,,0.5,NO,SI,NO,NO,NO,NO,NO,,,,,,,,4513-5126,,,,,,,,,,,,,,,,,,,,,,,,,,,,,,,,,,,,,,,,,NO,NO,NO,NO,NO,NO,,,
109862,"Centro de Salud Nº 7",,"Calle 7","sin número",,"Calle 82","Villa Elvira","Villa Elvira","La Plata","Buenos Aires",Argentina,1,,,-34.93893892174,-57.917804209509,,0.5,NO,SI,SI,NO,NO,NO,NO,,,,,,,,,,,,,,,,,,,,,,,,,,,,,,,,,,,,,,,,,,,,,,,,,NO,NO,NO,NO,NO,NO,,,
109872,"Centro de Salud Nº 8",,"Calle 20","sin número",,"Calle 85","San Lorenzo","San Lorenzo","La Plata","Buenos Aires",Argentina,1,,,-34.953215343552,-57.927702559772,,0.7,NO,SI,SI,NO,NO,NO,NO,,,,,,,,,,,,,,,,,,,,,,,,,,,,,,,,,,,,,,,,,,,,,,,,,NO,NO,NO,NO,NO,NO,,,
109882,"Centro de Salud Nº 8 El Encuentro","Centro de Salud Público",Ituzaingó,,,Serrano,"Malvinas Argentinas","Malvinas Argentinas","Malvinas Argentinas","Buenos Aires",Argentina,1,,,-34.50771,-58.6956,,0.7,SI,NO,NO,NO,NO,NO,NO,"(011) 4293-1110",,"Lunes a Viernes de 8 a 17","Sala De Espera",,,,,,,,,,,,,,,,,,,,,,,,,,,,,,,,,,,,,,,,,,,,,NO,NO,NO,NO,NO,NO,,,
109902,"Centro de Salud Nº 9 Billinghurst",,"1º Junta",5745,,,Billinghurst,Billinghurst,"San Martín","Buenos Aires",Argentina,1,,,-34.5805771,-58.5691387,,0.9,NO,SI,NO,NO,NO,NO,NO,,,,,,,,"4512 7040",,"Consejería Miércoles 9 a 12 hs.",,,,,,,,,,,,,,,,,,,,,,,,,,,,,,,,,,,,,,,NO,NO,NO,NO,NO,NO,,,
109912,"Centro de Salud Nº10, V. Esperanza",,Garibaldi,1897,,,"José León Suarez","José León Suarez","San Martín","Buenos Aires",Argentina,1,,,-34.528122,-58.5668303,,0.9,NO,SI,NO,NO,NO,NO,NO,,,,,,,,4580-1042,,"Consejería: Lunes, Martes, Miércoles 8.30 a 14 hs.",,,,,,,,,,,,,,,,,,,,,,,,,,,,,,,,,,,,,,,NO,NO,NO,NO,NO,NO,,,
109922,"Centro de Salud Nº17 (barrio Necochea)",,"Mitre (calle 33)","sin número",,Obligado,"Villa Hidalgo","Villa Hidalgo","San Martín","Buenos Aires",Argentina,1,,,-34.610198,-58.44106499999999,,0.7,NO,SI,NO,NO,NO,NO,NO,,,,,,,,4508-4090,,"Consejería: Lunes de 9 a 12 hs.",,,,,,,,,,,,,,,,,,,,,,,,,,,,,,,,,,,,,,,NO,NO,NO,NO,NO,NO,,,
109932,"Centro de Salud Nuestra Señora De Itati-barrio El",,Formosa,,,"San Pedro","Del Viso","Del Viso",Pilar,"Buenos Aires",Argentina,1,,,-34.4476799,-58.8052387,,0.5,NO,NO,SI,NO,NO,NO,NO,,,,,,,,,,,,,,,,,,"Dra. Karina Roxana Brizuela, M.P. N° 445.836",,,,,,,,,,,,,,,,,,,,,,,,,,,,,,,NO,NO,NO,NO,NO,NO,,,
109942,"Centro de Salud Padre Mugica",,"El Boyero","sin número",,,"Florencio Varela","Florencio Varela","Florencio Varela","Buenos Aires",Argentina,1,,,-34.7965806,-58.27601199999999,,0.5,SI,NO,NO,NO,NO,NO,NO,4268-2197,,"Jueves desde 10","Entre Los Olivos Y Los Algarrobos",,,,,,,,,,,,,,,,,,,,,,,,,,,,,,,,,,,,,,,,,,,,,NO,NO,NO,NO,NO,NO,,,
109952,"Centro de Salud Paulo Freire",,Belgrano,1518,,,"Florencio Varela","Florencio Varela","Florencio Varela","Buenos Aires",Argentina,1,,,-34.7786248,-58.24341330000001,,0.9,SI,NO,NO,NO,NO,NO,NO,,,"Lunes a Viernes 12.30 a 20.30",,,,,,,,,,,,,,,,,,,,,,,,,,,,,,,,,,,,,,,,,,,,,,NO,NO,NO,NO,NO,NO,,,
109972,"Centro de Salud Piaggi",,Málaga,"sin número",,Garibaldi,"San Fernando","San Fernando","San Fernando","Buenos Aires",Argentina,1,,,-34.4430618,-58.55796429999999,,0.5,NO,SI,SI,NO,NO,NO,NO,,,,,,,,4714-7094,,,"Responsable: Ma. del Carmen De Filippis",,,,,,,,,,,,,,,,,,,,,,,,,,,,,,,,,,,,,,NO,NO,NO,NO,NO,NO,,,
109982,"Centro de Salud Pico De Oro",,Yugoslavia,"sin número",,"La Hoya","Florencio Varela","Florencio Varela","Florencio Varela","Buenos Aires",Argentina,1,,,-34.7965806,-58.27601199999999,,0.5,SI,NO,NO,NO,NO,NO,NO,4274-2199,,"Jueves 10 a 12 y Martes 15 a 16",,,,,,,,,,,,,,,,,,,,,,,,,,,,,,,,,,,,,,,,,,,,,,NO,NO,NO,NO,NO,NO,,,
110002,"Centro de Salud Playa Dr. Carlos Fucile",,"Calle 8",3863,,,Necochea,Necochea,Necochea,"Buenos Aires",Argentina,1,,,-38.5785125,-58.7275089,,1,NO,NO,SI,NO,NO,NO,NO,,,,,,,,,,,,,,,02262-427201,,,"Dra. Silvia Elisabet Colella, M.P. N° 112.180",,,,,,,,,,,,,,,,,,,,,,,,,,,,,,,NO,NO,NO,NO,NO,NO,,,
110012,"CAPS Presidente Ibañez",,Avellaneda,2647,,,"Morón Sur","Morón Sur",Morón,"Buenos Aires",Argentina,1,,,-34.6332859,-58.6357,1,0.5,SI,NO,NO,NO,NO,NO,NO,,,,,,,,,"4696 1141",,"Lunes a Viernes de 8 a 17 Hs.",,,,,,,,,,,,,,,,,,,,,,,,,,,1,"4696 1141",,"Lunes a Viernes de 8 a 17 Hs.",,,,"ofrece asesoramiento sobre interrupción legal del ",,,,NO,NO,NO,NO,NO,NO,,,
110032,"Centro de Salud SUTEBA 1º de Junio",,Uruguay,47,,,"Morón Centro","Morón Centro",Morón,"Buenos Aires",Argentina,1,,,-34.636844,-58.3815591,1,0.5,SI,NO,NO,NO,NO,NO,NO,,,,,,,,,"(011) 15 4975-5868",,"Lunes a Viernes de 9:00 a 21:00 hs.","Referente: Daniel Dellianave",,,,,,,,,,,,,,,,,,,,,,,,,,0,,,,,,,,,,,NO,NO,NO,NO,NO,NO,,,
110042,"Centro de Salud Pueblo Doyle",,"Ruta  191",27,,,"Santa Lucía","Santa Lucía","San Pedro","Buenos Aires",Argentina,1,,,-33.8809957,-59.8743,,0.5,NO,NO,SI,NO,NO,NO,NO,,,,,,,,,,,,,,,,,,"Sin Dato",,,,,,,,,,,,,,,,,,,,,,,,,,,,,,,NO,NO,NO,NO,NO,NO,,,
110052,"Centro de Salud Ramón Carrillo",,"Emiliano Saez",,,Rivadavia,"Trenque Lauquen","Trenque Lauquen","Trenque Lauquen","Buenos Aires",Argentina,1,,,-35.9732789,-62.7325973,,0.5,NO,NO,SI,NO,NO,NO,NO,,,,,,,,,,,,,,,,,,"Dr. Pablo Javier Reyes, M.P. N° 113.252",,,,,,,,,,,,,,,,,,,,,,,,,,,,,,,NO,NO,NO,NO,NO,NO,,,
110062,"Centro de Salud Ramon Carrillo De Esteban Echeverr",,"Mariano Acosta",481,,,"Monte Grande","Monte Grande","Esteban Echeverría","Buenos Aires",Argentina,1,,,-34.8204958,-58.4736171,,0.9,NO,NO,SI,NO,NO,NO,NO,,,,,,,,,,,,,,,"(011) 4290-2355",,,"Sin Dato",,,,,,,,,,,,,,,,,,,,,,,,,,,,,,,NO,NO,NO,NO,NO,NO,,,
110072,"Centro de Salud Ramon Carrillo De General San Mart",,Ocampos,5023,,Maipú,"Villa Maipu","Villa Maipu","General San Martín","Buenos Aires",Argentina,1,,,-34.578953,-58.5347205,,0.7,NO,NO,SI,NO,NO,NO,NO,,,,,,,,,,,,,,,011-48300690,,,"Sin Dato",,,,,,,,,,,,,,,,,,,,,,,,,,,,,,,NO,NO,NO,NO,NO,NO,,,
110092,"Centro de Salud Reineke",,Alvear,"sin número",,Cerbetto,"San Fernando","San Fernando","San Fernando","Buenos Aires",Argentina,1,,,-34.4404882,-58.5660912,,0.7,NO,SI,SI,NO,NO,NO,NO,,,,,,,,"Tel: 4746-4132",,,"Responsable: Cynthia Sánchez",,,,,,,,,,,,,,,,,,,,,,,,,,,,,,,,,,,,,,NO,NO,NO,NO,NO,NO,,,
110102,"Centro de Salud Ricardo Rojas",,Ricchieri,,,Elizalde,"El Talar","El Talar",Tigre,"Buenos Aires",Argentina,1,,,-34.4720967,-58.6540206,,0.5,NO,NO,SI,NO,NO,NO,NO,,,,,,,,,,,,,,,011-45129988,,,"Dra. Analia Noemi Cursi Mp 450.981",,,,,,,,,,,,,,,,,,,,,,,,,,,,,,,NO,NO,NO,NO,NO,NO,,,
110112,"Centro de Salud Rincon De Milberg",,"Santa María",3000,,Irala,Tigre,Tigre,Tigre,"Buenos Aires",Argentina,1,,,-34.4787422,-58.62004510000001,,0.7,NO,NO,SI,NO,NO,NO,NO,,,,,,,,,,,,,,,011-45124517,,,"Dra. Carolina Catovsky, M.P. N° 452.051 Por Disposición N° 19 Del 4-1-2012",,,,,,,,,,,,,,,,,,,,,,,,,,,,,,,NO,NO,NO,NO,NO,NO,,,
110122,"Centro de Salud Rio Capitan",,"Rio Capitan",198,,"Arroyo Toro - Islas Del Delta",Tigre,Tigre,Tigre,"Buenos Aires",Argentina,1,,,-34.425087,-58.57965850000001,,0.5,NO,NO,SI,NO,NO,NO,NO,,,,,,,,,,,,,,,011-47280525,,,"Dra. Natalia Mariela Terán Esteban M.P. N° 450.162 Por Disposición N° 3124 Dl 30-11-2011",,,,,,,,,,,,,,,,,,,,,,,,,,,,,,,NO,NO,NO,NO,NO,NO,,,
110132,"Centro de Salud Rio Carapachay",,"Rio Carapachay",,,"Canal Ortiz - Islas Del Delta",Tigre,Tigre,Tigre,"Buenos Aires",Argentina,1,,,-34.425087,-58.57965850000001,,0.5,NO,NO,SI,NO,NO,NO,NO,,,,,,,,,,,,,,,011-47280056,,,"Dra. Natalia Mariela Terán Esteban, M.P. N° 450.162",,,,,,,,,,,,,,,,,,,,,,,,,,,,,,,NO,NO,NO,NO,NO,NO,,,
110162,"Centro de Salud San Cayetano",,"San Francisco 2044 Barrio 25 De Mayo",,,,Tandil,Tandil,Tandil,"Buenos Aires",Argentina,1,,,-37.329576,-59.1294068,,0.7,NO,NO,SI,NO,NO,NO,NO,,,,,,,,,,,,,,,"02293-422010/14 INT. 259",,,"Sin Dato",,,,,,,,,,,,,,,,,,,,,,,,,,,,,,,NO,NO,NO,NO,NO,NO,,,
110182,"Centro de Salud San Francisco",,"Santa Marta",1871,,,"Morón Sur","Morón Sur",Morón,"Buenos Aires",Argentina,-1,,,-34.6332859,-58.6357,1,0.5,SI,NO,NO,NO,NO,NO,NO,,,,,,,,,"(011) 4690-1475",,,,,,"Región Sanitaria VII - UGC 6 - 2 Dispensers",,,,,,,,,,,,,,,,,,,,,,,0,,,,,,,,,,,NO,NO,NO,NO,NO,NO,,,
110192,"Centro de Salud San Francisco",,"Calle 1336","sin número",,,"Florencio Varela","Florencio Varela","Florencio Varela","Buenos Aires",Argentina,1,,,-34.7965806,-58.27601199999999,,0.5,SI,SI,SI,NO,NO,NO,NO,4274-3782,,"Martes 14 a 15.30 y Miercoles 9 a 10.30",,,,,,,,,,,,,,,,,,,,,,,,,,,,,,,,,,,,,,,,,,,,,,NO,NO,NO,NO,NO,NO,,,
110202,"Centro de Salud San Francisco",,Uruguay,,,"Republica Argentina  Barrio San Francisco",Luján,Luján,Luján,"Buenos Aires",Argentina,1,,,-31.4255315,-62.0705694,,0.7,NO,NO,SI,NO,NO,NO,NO,,,,,,,,,,,,,,,02323-429965,,,"Sin Dato",,,,,,,,,,,,,,,,,,,,,,,,,,,,,,,NO,NO,NO,NO,NO,NO,,,
110212,"Centro de Salud Santa Paula",,Piñero,755,,,"José C. Paz","José C. Paz","José C. Paz","Buenos Aires",Argentina,1,,,-34.5058931,-58.7474666,,1,NO,NO,SI,NO,NO,NO,NO,,,,,,,,,,,,,,,"(02320) 447291",,,"Sin Dato",,,,,,,,,,,,,,,,,,,,,,,,,,,,,,,NO,NO,NO,NO,NO,NO,,,
110222,"Centro de Salud Suizo Ideal",,Chile,,,"Roque Sáenz Peña","José C. Paz","José C. Paz","José C. Paz","Buenos Aires",Argentina,1,,,-34.5287136,-58.7473743,,0.7,NO,NO,SI,NO,NO,NO,NO,,,,,,,,,,,,,,,02320-438808,,,"Sin Dato",,,,,,,,,,,,,,,,,,,,,,,,,,,,,,,NO,NO,NO,NO,NO,NO,,,
110242,"Centro de Salud Villa Concepcion",,"Calle 88 (independencia)",866,,,"General San Martín","General San Martín","General San Martín","Buenos Aires",Argentina,1,,,-34.566667,-58.533333,,0.5,NO,NO,SI,NO,NO,NO,NO,,,,,,,,,,,,,,,"(011) 4830-0711",,,"Sin Dato",,,,,,,,,,,,,,,,,,,,,,,,,,,,,,,NO,NO,NO,NO,NO,NO,,,
110262,"Centro de Salud Villa Depietri","Centro de Salud","San Martín",2765,,,"San Pedro","San Pedro","San Pedro","Buenos Aires",Argentina,1,,,-33.6874594,-59.6487818,1,0.9,SI,NO,SI,SI,NO,SI,NO,,,,,,,,,,,,,,,,,,"Sin Dato",,,,,,,,,,,,,,,,,,-,,,,,,,,,,,,,NO,NO,NO,NO,NO,NO,,,
110272,"Centro de Salud Villa Federal",,"Sarmiento 3244",,,,Virreyes,Virreyes,"San Fernando","Buenos Aires",Argentina,1,,,-34.4506703,-58.5736331,,1,NO,NO,SI,NO,NO,NO,NO,,,,,,,,,,,,,,,011-47441718,,,"Sin Dato (pendiente De Resolución)",,,,,,,,,,,,,,,,,,,,,,,,,,,,,,,NO,NO,NO,NO,NO,NO,,,
110292,"Centro de Salud Villa Italia Norte",,"Patagonia 977 Villa Italia Norte",,,,Tandil,Tandil,Tandil,"Buenos Aires",Argentina,1,,,-37.3287999,-59.1367167,,0.5,NO,NO,SI,NO,NO,NO,NO,,,,,,,,,,,,,,,02293-15571990,,,"Sin Dato",,,,,,,,,,,,,,,,,,,,,,,,,,,,,,,NO,NO,NO,NO,NO,NO,,,
110322,"Centro de Salud Villa Saboya",,"Victor Manuel","sin número",,,"Villa Saboya","Villa Saboya","General Villegas","Buenos Aires",Argentina,1,,,-34.4601936,-62.6493404,,0.5,NO,NO,SI,NO,NO,NO,NO,,,,,,,,,,,,,,,03382-496019,,,"Dr. Carlos Alberto Palombo Mp 444198",,,,,,,,,,,,,,,,,,,,,,,,,,,,,,,NO,NO,NO,NO,NO,NO,,,
110332,"Centro de Salud Virgen Del Rosario",,"Corrientes 298",,,"Jose Ingenieros","San Nicolás De Los Arroyos","San Nicolás De Los Arroyos","San Nicolás","Buenos Aires",Argentina,1,,,-33.3282628,-60.22657830000001,,0.9,NO,NO,SI,NO,NO,NO,NO,,,,,,,,,,,,,,,03461-508830,,,"Sin Dato",,,,,,,,,,,,,,,,,,,,,,,,,,,,,,,NO,NO,NO,NO,NO,NO,,,
110342,"Centro de Salud Vuelta De Obligado",,"Calle 25",14,,,Obligado,Obligado,"San Pedro","Buenos Aires",Argentina,1,,,-33.5965126,-59.8203066,,0.5,NO,NO,SI,NO,NO,NO,NO,,,,,,,,,,,,,,,03329-423089,,,"Sin Dato",,,,,,,,,,,,,,,,,,,,,,,,,,,,,,,NO,NO,NO,NO,NO,NO,,,
110352,"Centro de Salud Zelaya",,"Joaquín V. Gonzalez",795,,,Zelaya,Zelaya,Pilar,"Buenos Aires",Argentina,1,,,-34.3693539,-58.86974060000001,,0.5,NO,NO,SI,NO,NO,NO,NO,,,,,,,,,,,,,,,,,,"Sin Dato",,,,,,,,,,,,,,,,,,,,,,,,,,,,,,,NO,NO,NO,NO,NO,NO,,,
110372,"Centro Imri",,Rodo,300,,Moctezuma,Avellaneda,Avellaneda,Avellaneda,"Buenos Aires",Argentina,1,,,-34.6610756,-58.3669739,,0.5,SI,NO,NO,NO,NO,NO,NO,,,,,,,,,,,,,,,,,,,,,,,,,,,,,,,,,,,,,,,,,,,,,,,,,NO,NO,NO,NO,NO,NO,,,
110412,"Centro Integrador Comunitario (CIC ) Carlos Casare",,"Alte. Brown",,,"Entre Ríos","Carlos Casares","Carlos Casares","Carlos Casares","Buenos Aires",Argentina,1,,,-35.6180137,-61.3528282,,0.5,NO,NO,SI,NO,NO,NO,NO,,,,,,,,,,,,,,,,,,"Odontologo Fornes, Carlos Gerardo Mp 12779",,,,,,,,,,,,,,,,,,,,,,,,,,,,,,,NO,NO,NO,NO,NO,NO,,,
110422,"Centro Integrador Comunitario El Dique",,"Calle 43","sin número",,"Calle 126",Ensenada,Ensenada,Ensenada,"Buenos Aires",Argentina,1,,,-34.8648233,-57.9085188,,0.5,NO,SI,NO,NO,NO,NO,NO,,,,,,,,,,,,,,,,,,,,,,,,,,,,,,,,,,,,,,,,,,,,,,,,,NO,NO,NO,NO,NO,NO,,,
110442,"Centro Materno Infantil Audelina Zambrano",,"Corrientes 512",,,,"Belen De Escobar","Belen De Escobar",Escobar,"Buenos Aires",Argentina,1,,,-34.3412942,-58.80004779999999,,0.9,NO,NO,SI,NO,NO,NO,NO,,,,,,,,,,,,,,,03488-430530,,,"Dr. Ángel Ferraro, M.P. N° 51.644",,,,,,,,,,,,,,,,,,,,,,,,,,,,,,,NO,NO,NO,NO,NO,NO,,,
110452,"Centro Materno Infantil N° 1 Bella Vista De San Mi",,Mattaldi,1057,,,"Bella Vista","Bella Vista","San Miguel","Buenos Aires",Argentina,1,,,-34.562053,-58.67872999999999,,1,NO,NO,SI,NO,NO,NO,NO,,,,,,,,,,,,,,,"(011) 4666-0221",,,"Sin Dato (pendiente De Resolución)",,,,,,,,,,,,,,,,,,,,,,,,,,,,,,,NO,NO,NO,NO,NO,NO,,,
110462,"Centro Medico Atencion Primaria Cemap",,"J Recarte N",69,,,"Monte Grande","Monte Grande","Esteban Echeverría","Buenos Aires",Argentina,1,,,-34.8160858,-58.47380870000001,,0.9,NO,NO,SI,NO,NO,NO,NO,,,,,,,,,,,,,,,,,,"Dr. Carlos Alberto Leanza  Mp 47791",,,,,,,,,,,,,,,,,,,,,,,,,,,,,,,NO,NO,NO,NO,NO,NO,,,
110472,"Centro Medico De Atencion Primaria Cemap",,"Las Heras",39,,,"Bahía Blanca","Bahía Blanca","Bahía Blanca","Buenos Aires",Argentina,1,,,-38.72032189999999,-62.2623599,,1,NO,NO,SI,NO,NO,NO,NO,,,,,,,,,,,,,,,,,,"Dr. Ruben Ernesto Badaracco Mp 1572 A Partir Del 27-12-10",,,,,,,,,,,,,,,,,,,,,,,,,,,,,,,NO,NO,NO,NO,NO,NO,,,
110482,"Centro Medico De Atencion Primaria Cemap 22 De Abr",,"Estanislao Zeballos",1674,,,Avellaneda,Avellaneda,Avellaneda,"Buenos Aires",Argentina,1,,,-34.6668602,-58.3555195,,0.9,NO,NO,SI,NO,NO,NO,NO,,,,,,,,,,,,,,,,,,"Dr. Leanza Carlos Alberto",,,,,,,,,,,,,,,,,,,,,,,,,,,,,,,NO,NO,NO,NO,NO,NO,,,
110492,"Centro Medico Dorrego",,Dorrego,1950,,,"Mar Del Plata","Mar Del Plata","General Pueyrredón","Buenos Aires",Argentina,1,,,-37.9952639,-57.56061,,0.9,NO,NO,SI,NO,NO,NO,NO,,,,,,,,,,,,,,,,,,"Dr. Daniel Alberto Mezzanotte Mp 92.722",,,,,,,,,,,,,,,,,,,,,,,,,,,,,,,NO,NO,NO,NO,NO,NO,,,
110512,"Centro Monseñor Tomas Reggio",,Colombia,,,Jujuy,"Presidente Derqui","Presidente Derqui",Pilar,"Buenos Aires",Argentina,1,,,-34.4876846,-58.8297464,,0.7,NO,NO,SI,NO,NO,NO,NO,,,,,,,,,,,,,,,,,,"Dr. Simhan Javier Mp 53506",,,,,,,,,,,,,,,,,,,,,,,,,,,,,,,NO,NO,NO,NO,NO,NO,,,
110522,"Centro Municipal De Almirante Brown",,Gorriti,888,,,Burzaco,Burzaco,"Almirante Brown","Buenos Aires",Argentina,1,,,-34.8286232,-58.39333420000001,,0.5,NO,SI,NO,NO,NO,NO,NO,,,,,,,,011-42140699,,,,,,,,,,,,,,,,,,,,,,,,,,,,,,,,,,,,,,,,,NO,NO,NO,NO,NO,NO,,,
110542,"Centro para mujeres en situación de violencia",,Mendoza,289,,Alem,,Morón,Morón,"Buenos Aires",Argentina,1,,,-34.6455308,-58.622678,1,89.999,SI,NO,NO,NO,NO,NO,NO,,,,,,,,,"(011) 4489-7777 ( Interno 5241) Línea gratuita 080",,,,,,,,,,,,,,,,,,,,,,,,,,,,,0,,,,,,,,,,,NO,NO,NO,NO,NO,NO,,,
110642,"Centro Periferico De Salud Sarmiento",,"Calle 1339",,,"Calle 1308","Florencio Varela","Florencio Varela","Florencio Varela","Buenos Aires",Argentina,1,,,-34.7965806,-58.27601199999999,,0.5,NO,NO,SI,NO,NO,NO,NO,,,,,,,,,,,,,,,"(011) 4274-2096",,,"Sin Dato (pendiente De Resolución)",,,,,,,,,,,,,,,,,,,,,,,,,,,,,,,NO,NO,NO,NO,NO,NO,,,
110672,"Centro Periferico N° 18 Barrio Siderca De Campana",,Lavezzari,,,"Colectora Sur",Campana,Campana,Campana,"Buenos Aires",Argentina,1,,,-34.2084789,-58.9315916,,0.7,NO,NO,SI,NO,NO,NO,NO,,,,,,,,,,,,,,,03489-448420,,,"Sin Dato (pendiente De Resolución)",,,,,,,,,,,,,,,,,,,,,,,,,,,,,,,NO,NO,NO,NO,NO,NO,,,
110692,"Centro Periferico N° 4 De Campana",,Zarate,,,"Ugartemendia - San Cayetano",Campana,Campana,Campana,"Buenos Aires",Argentina,1,,,-34.1633346,-58.95926429999999,,0.5,NO,NO,SI,NO,NO,NO,NO,,,,,,,,,,,,,,,03489-430184,,,"Sin Dato (pendiente De Resolución)",,,,,,,,,,,,,,,,,,,,,,,,,,,,,,,NO,NO,NO,NO,NO,NO,,,
110702,"Centro Preventivo Materno Infantil",Municipal,"Calle 51",,,"Calle 13",Colón,Colón,Colón,"Buenos Aires",Argentina,1,,,-33.8971309,-61.0975518,1,0.7,SI,NO,SI,SI,NO,SI,NO,,,,,,,,,,,,,,,02477-430416,,,"Sin Dato",,,,,,,,,,,,,,,,,,,,,,,,,,,,,,,NO,NO,NO,NO,NO,NO,,,
110712,"Centro Salud Las Mandarinas",,Azcuénaga,"sin número",,"Hansen Magdalena de Fait",Brandsen,Brandsen,Brandsen,"Buenos Aires",Argentina,1,,,-35.1680865,-58.2395315,,0.7,NO,SI,NO,NO,NO,NO,NO,,,,,,,,,,,,,,,,,,,,,,,,,,,,,,,,,,,,,,,,,,,,,,,,,NO,NO,NO,NO,NO,NO,,,
110732,"Centro Salud Nº 4 - Dr. Luis Agote",,"Diag. 55 J.V.González",50,,,"José León Suarez","José León Suarez","San Martín","Buenos Aires",Argentina,1,,,-34.6383807,-58.37237989999999,,0.7,NO,SI,NO,NO,NO,NO,NO,,,,,,,,4580-1057/1056,,"Martes 10 a 12 hs.",,,,,,,,,,,,,,,,,,,,,,,,,,,,,,,,,,,,,,,NO,NO,NO,NO,NO,NO,,,
110742,"Centro Sanitario Villa Jardín",,Guatemala,3069,,,"San Fernando","San Fernando","San Fernando","Buenos Aires",Argentina,1,,,-34.4767385,-58.58589999999999,,0.9,NO,SI,NO,NO,NO,NO,NO,,,,,,,,"4714-6746 / 8746",,,"Responsable: Catalina Gerase",,,,,,,,,,,,,,,,,,,,,,,,,,,,,,,,,,,,,,NO,NO,NO,NO,NO,NO,,,
110752,"Centro Social De La Tercera Edad ""los Nonos""",,,"sin número",,,"Don Orione/claypole","Don Orione","Almirante Brown","Buenos Aires",Argentina,1,,,-34.8062416,-58.3362261,,0.7,SI,NO,NO,NO,NO,NO,NO,,,"Lunes a Viernes de 10 a 12 y de 14 a 16",,,,"Manzana 15 frente a manzana 14",,,,,,,,,,,,,,,,,,,,,,,,,,,,,,,,,,,,,,,,,,NO,NO,NO,NO,NO,NO,,,
110762,"Ceytteb (d)",,Malabia,674,,,Baradero,Baradero,Baradero,"Buenos Aires",Argentina,1,,,-33.8114349,-59.4974669,,0.7,NO,NO,NO,NO,SI,NO,NO,,,,,,,,,,,,,,,,,,,,,,,,,,,,,,,,"Psicopedagoga Jesica Vanesa Viera",,,,,,,,,,,,,,,,,NO,NO,NO,NO,NO,NO,,,
110772,"Che Sida - Facultad De Ciencias Sociales",,"Aristóbulo Del Valle",5737,,,Olavarría,Olavarría,Olavarría,"Buenos Aires",Argentina,1,,,-36.8937167,-60.32334989999999,,0.5,SI,NO,NO,NO,NO,NO,NO,"(02284) 450115 interno 307 o 308",,,"Responsable: Vanina Conde. 2 Dispensers",,,,,,,,,,,,,,,,,,,,,,,,,,,,,,,,,,,,,,,,,,,,,NO,NO,NO,NO,NO,NO,,,
110782,"CIC  Aeroparque",,"Calle 112",,,"13 Ruta 77 Km 5.6",Miramar,Miramar,"General Alvarado","Buenos Aires",Argentina,1,,,-38.2703168,-57.8394498,,0.5,NO,NO,SI,NO,NO,NO,NO,,,,,,,,,,,,,,,02296-15440841,,,"Sin Dato",,,,,,,,,,,,,,,,,,,,,,,,,,,,,,,NO,NO,NO,NO,NO,NO,,,
110802,"CIC  Balcarce",,"Calle 20",3,,,Balcarce,Balcarce,Balcarce,"Buenos Aires",Argentina,1,,,-37.8322949,-58.260065,,0.9,NO,NO,SI,NO,NO,NO,NO,,,,,,,,,,,,,,,02266-422279,,,"Sin Dato (pendiente De Resolución)",,,,,,,,,,,,,,,,,,,,,,,,,,,,,,,NO,NO,NO,NO,NO,NO,,,
110822,"CIC  Barrio Villa Progreso",,"Av. 20 De Diciembre","sin número",,Azzara,Rojas,Rojas,Rojas,"Buenos Aires",Argentina,1,,,-34.1899095,-60.72063739999999,,0.7,SI,NO,NO,NO,NO,NO,NO,"(02475) 464601",,"Lunes a viernes de 7 a 18hs",,,,,,,,,,,,,,,,,,,,,,,,,,,,,,,,,,,,,,,,,,,,,,NO,NO,NO,NO,NO,NO,,,
110832,"CIC  Boca Tres Arroyos",,Brown,1300,,,"Tres Arroyos","Tres Arroyos","Tres Arroyos","Buenos Aires",Argentina,1,,,-38.3847209,-60.2910777,,0.9,NO,NO,SI,NO,NO,NO,NO,,,,,,,,,,,,,,,02983-15565787,,,"Sin Dato",,,,,,,,,,,,,,,,,,,,,,,,,,,,,,,NO,NO,NO,NO,NO,NO,,,
110842,"CIC  Carranza",,Juarez,606,,,Chascomús,Chascomús,Chascomús,"Buenos Aires",Argentina,1,,,-35.5686172,-58.0186127,,0.9,NO,SI,NO,NO,NO,NO,NO,,,,,,,,,,,,,,,,,,,,,,,,,,,,,,,,,,,,,,,,,,,,,,,,,NO,NO,NO,NO,NO,NO,,,
110852,"CIC  De Alberdi",,"Presidente Illia","sin número",,Lebensohn,Alberdi,Alberdi,Alem,"Buenos Aires",Argentina,1,,,-34.438501,-61.81226050000001,,0.5,SI,NO,NO,NO,NO,NO,NO,"02362 15566536",,,,,,,,,,,,,,,,,,,,,,,,,,,,,,,,,,,,,,,,,,,,,,,,NO,NO,NO,NO,NO,NO,,,
110862,"CIC  Dock Sud",,Irala,,,Vertiz,"Dock Sud","Dock Sud",Avellaneda,"Buenos Aires",Argentina,1,,,-34.6539459,-58.3489914,,0.5,NO,NO,SI,NO,NO,NO,NO,,,,,,,,,,,,,,,,,,"Sin Dato",,,,,,,,,,,,,,,,,,,,,,,,,,,,,,,NO,NO,NO,NO,NO,NO,,,
110882,"CIC  Ensenada",,"Calle 126",43,,,Ensenada,Ensenada,Ensenada,"Buenos Aires",Argentina,1,,,-34.8704488,-57.9026057,,0.9,NO,NO,SI,NO,NO,NO,NO,,,,,,,,,,,,,,,,,,"Dr. Juan Carlos Orazi, M.P. N° 22.647",,,,,,,,,,,,,,,,,,,,,,,,,,,,,,,NO,NO,NO,NO,NO,NO,,,
110892,"CIC  Horacio Quintin",,"Boulevar 5","sin número",,"Calle 2",Chascomús,Chascomús,Chascomús,"Buenos Aires",Argentina,1,,,-35.5785737,-58.01385140000001,,0.5,NO,SI,NO,NO,NO,NO,NO,,,,,,,,,,,,,,,,,,,,,,,,,,,,,,,,,,,,,,,,,,,,,,,,,NO,NO,NO,NO,NO,NO,,,
110932,"CIC  Maria Lobato",,"Juan Jose Paso",,,Sarmiento,"San Miguel","San Miguel","San Miguel","Buenos Aires",Argentina,1,,,-34.543055,-58.7118577,,0.5,NO,NO,SI,NO,NO,NO,NO,,,,,,,,,,,,,,,,,,"Sin Dato (pendiente De Resolución)",,,,,,,,,,,,,,,,,,,,,,,,,,,,,,,NO,NO,NO,NO,NO,NO,,,
110942,"CIC  Pehuajo",,Maciel,,,Zanni,Pehuajó,Pehuajó,Pehuajó,"Buenos Aires",Argentina,1,,,-35.8107166,-61.8987832,,0.5,NO,NO,SI,NO,NO,NO,NO,,,,,,,,,,,,,,,,,,"Sin Dato",,,,,,,,,,,,,,,,,,,,,,,,,,,,,,,NO,NO,NO,NO,NO,NO,,,
110952,"CIC  Pista De Trote",,"Río Traful",,,Juramento,"Florencio Varela","Florencio Varela","Florencio Varela","Buenos Aires",Argentina,1,,,-34.7965806,-58.27601199999999,,0.5,NO,NO,SI,NO,NO,NO,NO,,,,,,,,,,,,,,,011-42379568,,,"Carlos Gonzalez",,,,,,,,,,,,,,,,,,,,,,,,,,,,,,,NO,NO,NO,NO,NO,NO,,,
110972,"CIC  San Fermin",,"Los Rosales",,,"Los Lotos",Luján,Luján,Luján,"Buenos Aires",Argentina,1,,,-34.5453718,-59.11846180000001,,0.7,NO,NO,SI,NO,NO,NO,NO,,,,,,,,,,,,,,,,,,"Sin Dato",,,,,,,,,,,,,,,,,,,,,,,,,,,,,,,NO,NO,NO,NO,NO,NO,,,
110982,"CIC  San Pedro",,"Hermano Indio",,,"Casella Barrio 291 Viviendas","San Pedro","San Pedro","San Pedro","Buenos Aires",Argentina,1,,,-33.6757835,-59.66286640000001,,0.5,NO,NO,SI,NO,NO,NO,NO,,,,,,,,,,,,,,,,,,"Sin Dato",,,,,,,,,,,,,,,,,,,,,,,,,,,,,,,NO,NO,NO,NO,NO,NO,,,
110992,"CIC  Spurr",,Esmeralda,1450,,,"Bahía Blanca","Bahía Blanca","Bahía Blanca","Buenos Aires",Argentina,1,,,-38.7555032,-62.254255,,0.9,SI,NO,NO,NO,NO,NO,NO,0291-4964730,,"Hasta las 15 hs.","Responsable: Marina Suárez",,,,,,,,,,,,,,,,,,,,,,,,,,,,,,,,,,,,,,,,,,,,,NO,NO,NO,NO,NO,NO,,,
111012,"Clinica Nuestra Señora De Fatima",,"Victor Vergani",830,,,Zelaya,Zelaya,Pilar,"Buenos Aires",Argentina,1,,,-34.3693539,-58.86974060000001,,0.5,NO,NO,SI,NO,NO,NO,NO,,,,,,,,,,,,,,,02322-420303,,,"Dr. Pedro Antonio Lencinas, M.P. 48702",,,,,,,,,,,,,,,,,,,,,,,,,,,,,,,NO,NO,NO,NO,NO,NO,,,
111022,"Clinica Nuestra Señora De La Dulce Espera",,"General Ferre",521,,,Sarandí,Sarandí,Avellaneda,"Buenos Aires",Argentina,1,,,-34.6853415,-58.35029249999999,,1,NO,NO,NO,NO,SI,NO,NO,,,,,,,,,,,,,,,,,,,,,,,,,,,,,011-42057100,,,"Dr. Saba, Eduardo Daniel",,,,,,,,,,,,,,,,,NO,NO,NO,NO,NO,NO,,,
111032,"Clinica Privada Chascomus Sa",,"Av. Lastra",364,,,"Chascomús (Chascomús Country Club)","Chascomús (Chascomús Country Club)",Chascomús,"Buenos Aires",Argentina,1,,,-35.5781511,-58.0170905,,0.9,NO,NO,NO,NO,SI,NO,NO,,,,,,,,,,,,,,,,,,,,,,,,,,,,,"(02241) 423365",,,"Dr. German Eduardo Mognone",,,,,,,,,,,,,,,,,NO,NO,NO,NO,NO,NO,,,
111042,"Clinica Privada Constituyentes",,Constituyentes,1068,,,Morón,Morón,Morón,"Buenos Aires",Argentina,1,,,-34.6452968,-58.6181454,1,89.999,NO,NO,NO,SI,NO,NO,NO,,,,,,,,,,,,,,,,"(011) 4483-3192 / 96",,,"Dr. Nul Daniel Rubén",,,,,,,,,,"(011) 4483-3192 / 96",,,"Dr. Nul Daniel Rubén",,,,,,0,,,,,,,,,,,NO,NO,NO,NO,NO,NO,,,
111052,"Clinica Privada Hispano Argentina",,Dorrego,296,,,"Tres Arroyos","Tres Arroyos","Tres Arroyos","Buenos Aires",Argentina,1,,,-38.3821519,-60.27661999999999,,0.9,NO,NO,NO,NO,SI,NO,NO,,,,,,,,,,,,,,,,,,,,,,,,,,,,,"02983- 431365",,,"Dr. Desperes, Sebastián",,,,,,,,,,,,,,,,,NO,NO,NO,NO,NO,NO,,,
111062,"Clinica Privada Independencia",,"Luis María Drago",5681,,,Munro,Munro,"Vicente López","Buenos Aires",Argentina,1,,,-34.5394956,-58.5333117,,0.9,NO,NO,NO,NO,SI,NO,NO,,,,,,,,,,,,,,,,,,,,,,,,,,,,,"(011) 4721-2351",,,"Dr. Hued, Fabiola Maricel",,,,,,,,,,,,,,,,,NO,NO,NO,NO,NO,NO,,,
111072,"Clinica Privada Santa Maria",,Marengo,3908,,,"Villa Ballester","Villa Ballester","General San Martín","Buenos Aires",Argentina,1,,,-34.5561748,-58.5479339,,1,NO,NO,NO,NO,SI,NO,NO,,,,,,,,,,,,,,,,,,,,,,,,,,,,,,,,"Dr. Tursi Osvaldo Hugo",,,,,,,,,,,,,,,,,NO,NO,NO,NO,NO,NO,,,
111082,"Club Atlanta",,,"sin número",,,Morse,Morse,Junín,"Buenos Aires",Argentina,1,,,-34.7613602,-60.8411179,,0.5,SI,NO,NO,NO,NO,NO,NO,"02362 15312012",,,,,,,,,,,,,,,,,,,,,,,,,,,,,,,,,,,,,,,,,,,,,,,,NO,NO,NO,NO,NO,NO,,,
111092,"Club Social Y Deportivo Defensores De Don Orione",,"Eva Perón","sin número",,,"Don Orione/claypole","Don Orione","Almirante Brown","Buenos Aires",Argentina,1,,,-34.8062416,-58.3362261,,0.7,SI,NO,NO,NO,NO,NO,NO,,,"Martes, Miercoles y Jueves de 18 a 20",,,,"Frente a Manzana 48",,,,,,,,,,,,,,,,,,,,,,,,,,,,,,,,,,,,,,,,,,NO,NO,NO,NO,NO,NO,,,
111102,"Club Villa Belgrano",,"Av. Libertad",935,,,Junín,Junín,Junín,"Buenos Aires",Argentina,1,,,-34.5663655,-60.94342,,0.9,SI,NO,NO,NO,NO,NO,NO,"02362 15458354",,,,,,,,,,,,,,,,,,,,,,,,,,,,,,,,,,,,,,,,,,,,,,,,NO,NO,NO,NO,NO,NO,,,
111132,"Comedor Barrio San Martín",,"San Martín","sin número",,Moreno,,"General Rodríguez","General Rodríguez","Buenos Aires",Argentina,1,,,-34.585602,-58.9262094,,0.7,SI,NO,NO,NO,NO,NO,NO,,,"De 09:00 a 15:00 hs.","Referente: Señora Olga",,,,,,,,,,,,,,,,,,,,,,,,,,,,,,,,,,,,,,,,,,,,,NO,NO,NO,NO,NO,NO,,,
111142,"Compañia De Sanidad / Bal Pigue",,"L M Campos Sin Nro",,,,Pigüé,Pigüé,Saavedra,"Buenos Aires",Argentina,1,,,-37.6028102,-62.4023118,,0.5,NO,NO,SI,NO,NO,NO,NO,,,,,,,,,,,,,,,2923405250,,,"Subof My Balmaceda Wilson",,,,,,,,,,,,,,,,,,,,,,,,,,,,,,,NO,NO,NO,NO,NO,NO,,,
111152,"Compañia De Sanidad / Bal Tandil",,"Av Pujol","sin número",,,Tandil,Tandil,Tandil,"Buenos Aires",Argentina,1,,,-37.2991716,-59.14867399999999,,0.7,NO,NO,SI,NO,NO,NO,NO,,,,,,,,,,,,,,,2494452152,casan1baltandil@yahoo.com.ar,,"Cap Med Fernando Carrera",,,,,,,,,,,,,,,,,,,,,,,,,,,,,,,NO,NO,NO,NO,NO,NO,,,
111162,"Comunidad Terapeutica Fundacion Reencuentro (a)",,Conesa,2019,,,"Paso Del Rey","Paso Del Rey",Moreno,"Buenos Aires",Argentina,1,,,-34.5803353,-58.7405174,1,0.7,NO,NO,NO,NO,SI,NO,NO,,,,,,,,,,,,,,,,,,,,,,,,,,,,,0237-4875407,,,"Dr. Lessa Manuel",,,,,,,,,,,,,,,,,NO,NO,NO,NO,NO,NO,,,
111172,Confitería,,Maciel,"sin número",,"San Martín","Coronel Dorrego","Coronel Dorrego","Coronel Dorrego","Buenos Aires",Argentina,1,,,-38.7194612,-61.29035049999999,,0.7,SI,NO,NO,NO,NO,NO,NO,"0291 452312",,"Viernes, sábados y domingos de 01 a 6hs.",,,,,,,,,,,,,,,,,,,,,,,,,,,,,,,,,,,,,,,,,,,,,,NO,NO,NO,NO,NO,NO,,,
111182,"Confiteria Bailable El Alamo",,"Río Neuquén","sin número",,Patagonia,"Monte Hermoso","Monte Hermoso","Monte Hermoso","Buenos Aires",Argentina,1,,,-38.9840927,-61.29705809999999,,0.7,SI,NO,NO,NO,NO,NO,NO,"02921 15401321",,,,,,,,,,,,,,,,,,,,,,,,,,,,,,,,,,,,,,,,,,,,,,,,NO,NO,NO,NO,NO,NO,,,
111192,"Construir Salud",,"San Martín",2631,,,"Florencio Varela","Florencio Varela","Florencio Varela","Buenos Aires",Argentina,1,,,-34.7995586,-58.2685514,,0.9,NO,NO,SI,NO,NO,NO,NO,,,,,,,,,,,,,,,,,,"Dr. Leanza Carlos Alberto",,,,,,,,,,,,,,,,,,,,,,,,,,,,,,,NO,NO,NO,NO,NO,NO,,,
111202,"Construir Salud Policlinica De La Obra Social De L",,"Calle 44",333,,,"La Plata","La Plata","La Plata","Buenos Aires",Argentina,1,,,-34.9056864,-57.9498519,,0.9,NO,NO,SI,NO,NO,NO,NO,,,,,,,,,,,,,,,,,,"Dra. Muñoz Cruz Del Carmen Mp 18904",,,,,,,,,,,,,,,,,,,,,,,,,,,,,,,NO,NO,NO,NO,NO,NO,,,
111212,"Construir Salud Policlinica De La Obra Social De L",,Irigoyen,1259,,,"General Pacheco","General Pacheco",Tigre,"Buenos Aires",Argentina,1,,,-34.4306262,-58.5963411,,0.9,NO,NO,SI,NO,NO,NO,NO,,,,,,,,,,,,,,,,,,"Dr. Leanza Carlos Alberto Mp 47791",,,,,,,,,,,,,,,,,,,,,,,,,,,,,,,NO,NO,NO,NO,NO,NO,,,
111222,"Construir Salud Policlinica De La Obra Social De L",,Independencia,540,,,Zárate,Zárate,Zárate,"Buenos Aires",Argentina,1,,,-34.0967595,-59.02088389999999,,0.9,NO,NO,SI,NO,NO,NO,NO,,,,,,,,,,,,,,,"03487-43-7997 / 42-5197",,,"Dra. Rosana Edith Mallada Mp 54267",,,,,,,,,,,,,,,,,,,,,,,,,,,,,,,NO,NO,NO,NO,NO,NO,,,
111232,"Construir Salud Policlinica De La Obra Social Del",,Urquiza,114,,,"San Nicolás De Los Arroyos","San Nicolás De Los Arroyos","San Nicolás","Buenos Aires",Argentina,1,,,-33.3294195,-60.2203643,,1,NO,NO,SI,NO,NO,NO,NO,,,,,,,,,,,,,,,,,,"Dra. Maria Dolores Lucena Mp 63.008",,,,,,,,,,,,,,,,,,,,,,,,,,,,,,,NO,NO,NO,NO,NO,NO,,,
111242,"Consultorio Centro Malvinas Argentinas","Centro de Salud Público","San Martín",,,Piedras,"Los Polvorines","Los Polvorines","Malvinas Argentinas","Buenos Aires",Argentina,1,,,-34.4996258,-58.6914464,,0.5,SI,NO,NO,NO,NO,NO,NO,"(011) 4660-2131",,"De 8 a 18hs","Berst Cristina",,,,,,,,,,,,,,,,,,,,,,,,,,,,,,,,,,,,,,,,,,,,,NO,NO,NO,NO,NO,NO,,,
111252,"Consultorio Cepem",,Machado,729,,,Morón,Morón,Morón,"Buenos Aires",Argentina,1,,,-34.6464171,-58.6188237,1,89.999,NO,NO,NO,SI,NO,NO,NO,,,,,,,,,,,,,,,,,,,"Dr. Botol Alfredo",,,,,,,,,,,,,"Dr. Botol Alfredo",,,,,,0,,,,,,,,,,,NO,NO,NO,NO,NO,NO,,,
111262,"Consultorio Medico Municipal",,Necochea,1398,,,"San Fernando","San Fernando","San Fernando","Buenos Aires",Argentina,1,,,-34.4454273,-58.5540794,,0.9,NO,NO,SI,NO,NO,NO,NO,,,,,,,,,,,,,,,"(011) 4744-4791",,,"Sin Dato (pendiente De Resolución)",,,,,,,,,,,,,,,,,,,,,,,,,,,,,,,NO,NO,NO,NO,NO,NO,,,
111282,"Cooperativa Gpmf",,"Almirante Brown",480,,,,Luján,Luján,"Buenos Aires",Argentina,1,,,-34.5619657,-59.11420889999999,,0.9,SI,NO,NO,NO,NO,NO,NO,,,"Lunes a Viernes de 09:00 a 13:00 y de 14:00 a 20:00 hs.","Referente: Erika Hazi",,,,,,,,,,,,,,,,,,,,,,,,,,,,,,,,,,,,,,,,,,,,,NO,NO,NO,NO,NO,NO,,,
111292,"Coordinadora Enfermería",,"AV. Libertador",751,,Güemes,,Moreno,Moreno,"Buenos Aires",Argentina,1,,,-34.6413309,-58.78819989999999,,0.9,SI,NO,NO,NO,NO,NO,NO,"(0237) 4662451",,"Lunes a Viernes de 8:00 a 18:00 hs.",,,,,,,,,,,,,,,,,,,,,,,,,,,,,,,,,,,,,,,,,,,,,,NO,NO,NO,NO,NO,NO,,,
111302,"Corralon Municipal",,Larralde,"sin número",,Condarco,Avellaneda,Avellaneda,Avellaneda,"Buenos Aires",Argentina,1,,,-34.6610756,-58.3669739,,0.5,SI,NO,NO,NO,NO,NO,NO,,,,,,,,,,,,,,,,,,,,,,,,,,,,,,,,,,,,,,,,,,,,,,,,,NO,NO,NO,NO,NO,NO,,,
111312,Cpa,,Lavalle,929,,,Junín,Junín,Junín,"Buenos Aires",Argentina,1,,,-34.5829151,-60.9562449,,1,SI,NO,NO,NO,NO,NO,NO,"02362 428403",,,,,,,,,,,,,,,,,,,,,,,,,,,,,,,,,,,,,,,,,,,,,,,,NO,NO,NO,NO,NO,NO,,,
111322,"Cpf I Complejo Penitenciario Federal I - Ezeiza",,"Av. Del Libertador",,,Corrientes,Canning,Canning,Ezeiza,"Buenos Aires",Argentina,1,,,-34.8844956,-58.5127172,,0.5,NO,NO,NO,NO,SI,NO,NO,,,,,,,,,,,,,,,,,,,,,,,,,,,,,(011)-4295-3144,dgacpf1@spf.gov.ar,,"Dr. Cler Pereyra",,,,,,,,,,,,,,,,,NO,NO,NO,NO,NO,NO,,,
111332,"Cpf Ii Complejo Penitenciario Federal Ii",,"Acceso Zabala Circunvalación 3",191,,,"Marcos Paz","Marcos Paz","Marcos Paz","Buenos Aires",Argentina,1,,,-34.7823358,-58.8377795,,0.5,NO,NO,NO,NO,SI,NO,NO,,,,,,,,,,,,,,,,,,,,,,,,,,,,,"(0220) 477-7893 / 4918",dgacpf2@spf.gov.ar,,"Dr. Jorge Cerdarevich",,,,,,,,,,,,,,,,,NO,NO,NO,NO,NO,NO,,,
111342,"Cpf Iv Complejo Penitenciario Federal Iv",,French,,,Constituyentes,"Carlos Spegazzini","Carlos Spegazzini",Ezeiza,"Buenos Aires",Argentina,1,,,-34.6192749,-58.42634,,0.7,NO,NO,SI,NO,NO,NO,NO,,,,,,,,,,,,,,,,,,"Sin Dato",,,,,,,,,,,,,,,,,,,,,,,,,,,,,,,NO,NO,NO,NO,NO,NO,,,
111352,"Crus Roja Filial Necochea",,"Calle 521",3030,,,Necochea,Necochea,Necochea,"Buenos Aires",Argentina,1,,,-38.5538526,-58.7174875,,0.9,SI,NO,NO,NO,NO,NO,NO,"(02262) 452030",necochea@cruzroja.org.ar,,,,,,,,,,,,,,,,,,,,,,,,,,,,,,,,,,,,,,,,,,,,,,,NO,NO,NO,NO,NO,NO,,,
111362,"Cruz Roja",,Saenz,749,,,"Lomas De Zamora","Lomas De Zamora","Lomas De Zamora","Buenos Aires",Argentina,1,,,-34.7572036,-58.4072608,,0.9,SI,NO,NO,NO,NO,NO,NO,4245-9275,ld-zamora@cruzroja.org.ar,,,,,,,,,,,,,,,,,,,,,,,,,,,,,,,,,,,,,,,,,,,,,,,NO,NO,NO,NO,NO,NO,,,
111372,"Cruz Roja Filial Mar Del Plata",,Rivadavia,3969,,,"Mar Del Plata","Mar Del Plata","General Pueyrredón","Buenos Aires",Argentina,1,,,-37.9622293,-57.6226192,,0.9,SI,NO,NO,NO,NO,NO,NO,"(0223) 4723824",md-plata@cruzroja.org.ar,,,,,,,,,,,,,,,,,,,,,,,,,,,,,,,,,,,,,,,,,,,,,,,NO,NO,NO,NO,NO,NO,,,
111382,"Cruz Roja Filial Quilmes",,Mitre,229,,,Quilmes,Quilmes,Quilmes,"Buenos Aires",Argentina,1,,,-34.7144808,-58.2592139,,0.9,SI,NO,NO,NO,NO,NO,NO,4253-1174,quilmes@cruzroja.org.ar,,,,,,,,,,,,,,,,,,,,,,,,,,,,,,,,,,,,,,,,,,,,,,,NO,NO,NO,NO,NO,NO,,,
111392,"Cruz Roja Filial San Nicolas",,Sarmiento,32,,,"San Nicolás","San Nicolás","San Nicolás","Buenos Aires",Argentina,1,,,-33.328842,-60.2164117,,1,SI,NO,NO,NO,NO,NO,NO,"(03461) 43-9200",s-nicolas@cruzroja.org.ar,,,,,,,,,,,,,,,,,,,,,,,,,,,,,,,,,,,,,,,,,,,,,,,NO,NO,NO,NO,NO,NO,,,
111402,"Cruz Roja Filial San Pedro",,"Hipólito Irigoyen",277,,,"San Pedro","San Pedro","San Pedro","Buenos Aires",Argentina,1,,,-33.6773299,-59.66168719999999,,0.9,SI,NO,NO,NO,NO,NO,NO,"(03329) 42-1003",s-pedro@cruzroja.org.ar,,,,,,,,,,,,,,,,,,,,,,,,,,,,,,,,,,,,,,,,,,,,,,,NO,NO,NO,NO,NO,NO,,,
111412,"Cruz Roja Filial Santos Lugares",,"Severino Langeri",3670,,,"Santos Lugares","Santos Lugares","Tres De Febrero","Buenos Aires",Argentina,1,,,-34.5990645,-58.5467344,,0.5,SI,NO,NO,NO,NO,NO,NO,,s-lugares@cruzroja.org.ar,,,,,,,,,,,,,,,,,,,,,,,,,,,,,,,,,,,,,,,,,,,,,,,NO,NO,NO,NO,NO,NO,,,
111422,"Cruz Roja Filial Tandil",,"San Martín",452,,,Tandil,Tandil,Tandil,"Buenos Aires",Argentina,1,,,-37.3270568,-59.1386472,,0.9,SI,NO,NO,NO,NO,NO,NO,"(02293) 422746",tandil@cruzroja.org.ar,,,,,,,,,,,,,,,,,,,,,,,,,,,,,,,,,,,,,,,,,,,,,,,NO,NO,NO,NO,NO,NO,,,
111432,"Cruz Roja Filial Villa Gesell",,"Av. Costanera","sin número",,"Paseo 128","Villa Gesell","Villa Gesell","Villa Gesell","Buenos Aires",Argentina,1,,,-37.2652517,-56.9709503,,0.7,SI,NO,NO,NO,NO,NO,NO,"(02255) 463297",v-gesell@cruzroja.org.ar,,,,,,,,,,,,,,,,,,,,,,,,,,,,,,,,,,,,,,,,,,,,,,,NO,NO,NO,NO,NO,NO,,,
111442,"Delegacion 3 De Febrero Circulo Mutual De Subofici",,Anchordoqui,1421,,,Ciudadela,Ciudadela,"Tres De Febrero","Buenos Aires",Argentina,1,,,-34.5999732,-58.54106470000001,,1,NO,NO,SI,NO,NO,NO,NO,,,,,,,,,,,,,,,4651-0880,presidentepaz@yahoo.com.ar,,"Miguel R Paz",,,,,,,,,,,,,,,,,,,,,,,,,,,,,,,NO,NO,NO,NO,NO,NO,,,
111462,"Delegacion Circulo Mutual De Suboficiales","Organización Social",Baigorria,1584,,,"Grand Bourg","Grand Bourg","Malvinas Argentinas","Buenos Aires",Argentina,1,,,-34.4840963,-58.7246769,,0.9,NO,NO,SI,NO,NO,NO,NO,,,,,,,,,,,,,,,"(02320) 485493",presidentepaz@yahoo.com.ar,,"Miguel R Paz",,,,,,,,,,,,,,,,,,,,,,,,,,,,,,,NO,NO,NO,NO,NO,NO,,,
111472,"Delegación Morón Círculo Mutual de Suboficiales...",,"Nuestra Señora del Buen Viaje",1125,,,Morón,Morón,Morón,"Buenos Aires",Argentina,1,,,-34.6515381,-58.6245435,1,1,NO,NO,SI,NO,NO,NO,NO,,,,,,,,,,,,,,,,,,,,,,,489-5763,presidentepaz@yahoo.com.ar,,"Miguel R Paz",,,,,,,,,,,,0,,,,,,,,,,,NO,NO,NO,NO,NO,NO,,,
111482,"Delegacion Padua Circulo Mutual De Suboficiales De",,Fentanes,,,Argerich,"San Antonio De Padua","San Antonio De Padua",Merlo,"Buenos Aires",Argentina,1,,,-34.651995,-58.7154251,,0.7,NO,NO,SI,NO,NO,NO,NO,,,,,,,,,,,,,,,0220-483-4552,presidentepaz@yahoo.com.ar,,"Miguel R Paz",,,,,,,,,,,,,,,,,,,,,,,,,,,,,,,NO,NO,NO,NO,NO,NO,,,
111492,"Delegacion Quilmes Circulo Mutual De Suboficiales",,"Gran Canarias",1096,,,Quilmes,Quilmes,Quilmes,"Buenos Aires",Argentina,1,,,-34.7233356,-58.2631682,,0.9,NO,NO,SI,NO,NO,NO,NO,,,,,,,,,,,,,,,4253-6078,presidentepaz@yahoo.com.ar,,"Miguel R. Paz",,,,,,,,,,,,,,,,,,,,,,,,,,,,,,,NO,NO,NO,NO,NO,NO,,,
