id,establecimiento,tipo,calle,altura,piso_dpto,cruce,barrio_localidad,ciudad,partido_comuna,provincia_region,pais,aprobado,observacion,formattedaddress,latitude,longitude,habilitado,confidence,condones,prueba,vacunatorio,ile,infectologia,ssr,es_rapido,tel_distrib,mail_distrib,horario_distrib,responsable_distrib,web_distrib,ubicacion_distrib,comentarios_distrib,tel_testeo,mail_testeo,horario_testeo,responsable_testeo,web_testeo,ubicacion_testeo,observaciones_testeo,tel_vac,mail_vac,horario_vac,responsable_vac,web_vac,ubicacion_vac,comentarios_vac,tel_ile,mail_ile,horario_ile,responsable_ile,web_ile,ubicacion_ile,comentarios_ile,tel_infectologia,mail_infectologia,horario_infectologia,responsable_infectologia,web_infectologia,ubicacion_infectologia,comentarios_infectologia,tel_ssr,mail_ssr,horario_ssr,responsable_ssr,web_ssr,ubicacion_ssr,comentarios_ssr,servicetype_condones,servicetype_prueba,servicetype_mac,servicetype_ile,servicetype_dc,servicetype_ssr,friendly_condones,friendly_prueba,friendly_mac,friendly_ile,friendly_dc,friendly_ssr,uploader_name,uploader_email,uploader_tel
106162,"Acción Social","Organismo Público","Nuestra Señora del Buen Viaje",968,,,,"Bahía Blanca",Morón,"Buenos Aires",Argentina,1,,,-34.651703,-58.6222108,1,1,SI,NO,NO,NO,NO,NO,NO,"(011) 4489-7860",,,"Referente: Patricia Ramos Y Lucas Jaime",,,,,,,,,,,"2 Dispensers",,,,,,,,,,,,,,,,,,,,,,,,,,,,,,,,,,NO,NO,NO,NO,NO,NO,,,
106172,"Acción Social","Organismo Público",Alcorta,340,,,,Morón,Moreno,"Buenos Aires",Argentina,1,,,-34.6590557,-58.7599379,1,0.9,SI,NO,NO,NO,NO,NO,NO,"(0237) 4667788",,"Lunes a Viernes de 8:00 a 18:00 hs.",,,,"2 Dispensers",,,,,,,,,,,,,,,,,,,,,,,,,,,,,,,,,,,,,,,,,,NO,NO,NO,NO,NO,NO,,,
106182,"Administración Nacional De Laboratorios E Institut","Organismo Público",Monteagudo,2510,,,Pergamino,Pergamino,Pergamino,"Buenos Aires",Argentina,1,,,-33.9112035,-60.5885537,1,1,NO,NO,SI,NO,NO,NO,NO,,,,,,,,,,,,,,,"(02477) 433044",asalas@anlis.gov.ar,,"Adriana Salas",,,,,,,,,,,,,,,,,,,,,,,,,,,,,,,NO,NO,NO,NO,NO,NO,,,
106192,Adonis,Privado,"Carolina Martínez",,,,"Bahía Blanca","Bahía Blanca","Bahía Blanca","Buenos Aires",Argentina,1,,,-38.7183177,-62.2663478,1,0.5,SI,NO,NO,NO,NO,NO,NO,,,,"Carolina Martínez",,,,,,,,,,,,,,,,,,,,,,,,,,,,,,,,,,,,,,,,,,,,,NO,NO,NO,NO,NO,NO,,,
106202,"Agrupación Aviación","Organización Social","Ruta  8","Puerta 4",,,"Bella Vista","Bella Vista","San Miguel","Buenos Aires",Argentina,1,,,-34.5637055,-58.6903973,1,0.5,NO,NO,SI,NO,NO,NO,NO,,,,,,,,,,,,,,,"(011) 1534146060",grachel100983@gmail.com,,"Leiva Graciela Beatriz",,,,,,,,,,,,,,,,,,,,,,,,,,,,,,,NO,NO,NO,NO,NO,NO,,,
106222,"Amas Asociación Mutual De Accion Solidaria","Organización Social",Esturla,,,Zarate,Avellaneda,Sarandí,Avellaneda,"Buenos Aires",Argentina,1,,,-34.6800934,-58.3317247,1,0.5,SI,NO,NO,NO,NO,NO,NO,,,,,,,,,,,,,,,,,,,,,,,,,,,,,,,,,,,,,,,,,,,,,,,,,NO,NO,NO,NO,NO,NO,,,
106242,"Asociacion Civil America Morena","Organización Social",Doyhennard,815,,,Lavallol,Lavallol,"Lomas De Zamora","Buenos Aires",Argentina,1,,,-34.8058136,-58.4218065,1,0.9,SI,NO,NO,NO,NO,NO,NO,"(011) 4231-8202/4298-0206",,,,,,,,,,,,,,,,,,,,,,,,,,,,,,,,,,,,,,,,,,,,,,,,NO,NO,NO,NO,NO,NO,,,
106252,"Asociación Civil Lazos","Organización Social",,,,,"Barrio Villa Zapiola","Barrio Villa Zapiola",Moreno,"Buenos Aires",Argentina,-1,,,-35.04999919999999,-59.04999919999999,,0.5,SI,NO,NO,NO,NO,NO,NO,"(011) 50953916",,,"Referente: Esther",,,,,,,,,,,,,,,,,,,,,,,,,,,,,,,,,,,,,,,,,,,,,NO,NO,NO,NO,NO,NO,,,
106262,"Asociación Decidir","Organización Social","A. Alcorta",2442,,,"Moreno Sur","Moreno Sur",Moreno,"Buenos Aires",Argentina,1,,,-34.6585187,-58.7807537,1,0.7,SI,NO,NO,NO,NO,NO,NO,"(011) 15 51131769",,"Lunes de 17:30 a 20:00, Martes 15:00 a 18:00 y Jueves 18:30 a 21:00 hs.","Contacto: Licenciada Teodori",,,,,,,,,,,,,,,,,,,,,,,,,,,,,,,,,,,,,,,,,,,,,NO,NO,NO,NO,NO,NO,,,
106272,"Atta / Inadi","Organismo Público",Corrientes,301,,,"Bahía Blanca","Bahía Blanca","Bahía Blanca","Buenos Aires",Argentina,1,,,-38.7154808,-62.2563948,1,0.9,SI,NO,NO,NO,NO,NO,NO,"(0291) 453-0332",,"16 A 18 HS","Patricia Giménez",,,,,,,,,,,,,,,,,,,,,,,,,,,,,,,,,,,,,,,,,,,,,NO,NO,NO,NO,NO,NO,,,
106282,"Atta Mar Del Plata","Organización Social","Santiago Del Estero",1356,,,"Mar Del Plata","Mar Del Plata","General Pueyrredón","Buenos Aires",Argentina,1,,,-37.9971568,-57.54363089999999,1,0.9,SI,NO,NO,NO,NO,NO,NO,"(0223) 1556991499",attacostaatlantica@yahoo.com.ar,,"Patricia Rasmussen",,,,,,,,,,,,,,,,,,,,,,,,,,,,,,,,,,,,,,,,,,,,,NO,NO,NO,NO,NO,NO,,,
106292,"Bar Central",Privado,Irigoyen,,,"Presidente Perón",Rojas,Rojas,Rojas,"Buenos Aires",Argentina,1,,,-34.197698,-60.7338035,1,0.5,SI,NO,NO,NO,NO,NO,NO,"(02474) 15-471748",,"De 7 a 3 hs",,,,,,,,,,,,,,,,,,,,,,,,,,,,,,,,,,,,,,,,,,,,,,NO,NO,NO,NO,NO,NO,,,
106302,"Centro de Salud Barrio Bicentenario","Centro de Salud Público",,,,,,"General Pueyrredón","General Rodríguez","Buenos Aires",Argentina,1,,,-34.6020889,-58.9521294,1,0.5,SI,NO,NO,NO,NO,NO,NO,,,"De 08:00 a 17:00 hs.","Referente: Marcela Calabrese",,,"Sala de Enfermería.",,,,,,,,,,,,,,,,,,,,,,,,,,,,,,,,,,,,,,,,,,NO,NO,NO,NO,NO,NO,,,
106312,"Barrio Namuncura Sum","Organización Social","Arrollo Sarandi",,,Morse,Avellaneda,Avellaneda,Avellaneda,"Buenos Aires",Argentina,1,,,-34.6832581,-58.3439941,1,0.5,SI,NO,NO,NO,NO,NO,NO,,,,"Pamela Miranda",,,,,,,,,,,,,,,,,,,,,,,,,,,,,,,,,,,,,,,,,,,,,NO,NO,NO,NO,NO,NO,,,
106502,"Biblioteca Municipal Domingo Faustino Sarmiento""","Establecimiento Educativo","Almirante Brown",763,,,,Morón,Morón,"Buenos Aires",Argentina,1,,,-34.650422,-58.61952,1,1,SI,NO,NO,NO,NO,NO,NO,"(011) 4483-2142",,,,,,,,,,,,,"Ubicación: Biblioteca",,,,,,,,,,,,,,,,,,,,,,,,,,,,,,,,,,,NO,NO,NO,NO,NO,NO,,,
106512,"Boliche Bailable",Privado,"Av. San Martín",590,,,Oriente,Oriente,"Coronel Dorrego","Buenos Aires",Argentina,1,,,-38.7420571,-60.60779719999999,1,0.7,SI,NO,NO,NO,NO,NO,NO,"02983 495287",,"Viernes, sábados y domingos de 01 a 6hs.",,,,,,,,,,,,,,,,,,,,,,,,,,,,,,,,,,,,,,,,,,,,,,NO,NO,NO,NO,NO,NO,,,
106522,"Boliche Bailable Le Park",Privado,Colón,,,,"Punta Alta","Punta Alta","Coronel de la Marina Leonardo Rosales","Buenos Aires",Argentina,1,,,-38.8760605,-62.07408900000001,1,0.5,SI,NO,NO,NO,NO,NO,NO,,,Nocturno,,,,,,,,,,,,,,,,,,,,,,,,,,,,,,,,,,,,,,,,,,,,,,NO,NO,NO,NO,NO,NO,,,
106532,"Boliche Bailable Roka Disco",Privado,Freyre,,,Cifone,Guaminí,Guaminí,Guaminí,"Buenos Aires",Argentina,1,,,-37.012608,-62.41847109999999,1,0.5,SI,NO,NO,NO,NO,NO,NO,,,,,,,,,,,,,,,,,,,,,,,,,,,,,,,,,,,,,,,,,,,,,,,,,NO,NO,NO,NO,NO,NO,,,
106542,"Boliche Rubik",Privado,"Benito De Miguel",663,,,Junín,Junín,Junín,"Buenos Aires",Argentina,1,,,-34.59939,-60.959289,1,0.9,SI,NO,NO,NO,NO,NO,NO,"(02362) 15529685",,,,,,,,,,,,,,,,,,,,,,,,,,,,,,,,,,,,,,,,,,,,,,,,NO,NO,NO,NO,NO,NO,,,
106552,"Brown Noche",Privado,,,,,"Almirante Brown","Almirante Brown","Almirante Brown","Buenos Aires",Argentina,1,,,-34.8281517,-58.38654709999999,1,0.5,SI,NO,NO,NO,NO,NO,NO,,vanguardiavi@hotmail.com,,,,,"Prevencion, Distribucion de folleteria y material",,,,,,,,,,,,,,,,,,,,,,,,,,,,,,,,,,,,,,,,,,NO,NO,NO,NO,NO,NO,,,
106562,"Buscando Un Lugar","Organización Social",Toledo,,,Barker,"Barrio Santa Paula",Moreno,Moreno,"Buenos Aires",Argentina,1,,,-34.63401,-58.79138,1,0.5,SI,NO,NO,NO,NO,NO,NO,,,"Viernes por la tarde","Referente: Emilse Guzmán",,,,,,,,,,,,,,,,,,,,,,,,,,,,,,,,,,,,,,,,,,,,,NO,NO,NO,NO,NO,NO,,,
106612,"Cabaña Joven",Privado,"21 De Enero",301,,,,Pergamino,Pergamino,"Buenos Aires",Argentina,1,,,-33.8912831,-60.5745999,1,0.5,SI,NO,NO,NO,NO,NO,NO,"(02477) 440804",,"Lunes a viernes de 8 a 17hs",,,,,,,,,,,,,,,,,,,,,,,,,,,,,,,,,,,,,,,,,,,,,,NO,NO,NO,NO,NO,NO,,,
106632,"C.A.P.S.  15","Centro de Salud Público","Ingeniero Pereyra",3484,,Rucci,"Ciudadela Sur","Ciudadela Sur","Tres De Febrero","Buenos Aires",Argentina,1,,,-34.6327962,-58.5435804,1,0.5,SI,NO,NO,NO,NO,NO,NO,,,"Lunes a Viernes de 09:00 a 14:00 hs.","Mesa De Entradas. Referente: Rocío Rodríguez (adm)",,,,,,,,,,,,,,,,,,,,,,,,,,,,,,,,,,,,,,,,,,,,,NO,NO,NO,NO,NO,NO,,,
106652,"C.A.P.S.  2 De Abril","Centro de Salud Público","La Trilla",,,Ciudadela,"Barrio Ñandú","Villa Tesei",Hurlingham,"Buenos Aires",Argentina,1,,,-34.6197923,-58.63921500000001,1,0.5,SI,NO,SI,NO,NO,NO,NO,"(011) 15 37020898",,"Lunes a Viernes de 8:00 a 14:00 hs.","Responsable Del Dispenser: José Luis- Administrativo",,,,,,,,,,,"(011) 15 37020898",,,,,,,,,,,,,,,,,,,,,,,,,,,,,,,,,,NO,NO,NO,NO,NO,NO,,,
106662,"C.A.P.S.  2 Pedro Luro","Centro de Salud Público","Calle 12",,,"Calle 25","Pedro Luro","Pedro Luro",Villarino,"Buenos Aires",Argentina,1,,,-39.4502724,-62.6761253,1,0.5,SI,NO,NO,NO,NO,NO,NO,,,"8 a 16 hs.",,,,,,,,,,,,,,,,,,,,,,,,,,,,,,,,,,,,,,,,,,,,,,NO,NO,NO,NO,NO,NO,,,
106672,"C.A.P.S.  25 De Mayo","Centro de Salud Público","Pastor Naranjo",898,,,"San Nicolás","San Nicolas","San Nicolás de los Arroyos","Buenos Aires",Argentina,1,,,-33.3160624534,-60.2433490195,1,1,SI,NO,NO,NO,NO,NO,NO,"(03461) 15-405077",,,,,,,,,,,,,,,,,,,,,,,,,,,,,,,,,,,,,,,,,,,,,,,,NO,NO,NO,NO,NO,NO,,,
106682,"C.A.P.S.  3 Médanos","Centro de Salud Público","Martín Fierro",,,Rivadavia,Médanos,Médanos,Villarino,"Buenos Aires",Argentina,1,,,-38.8283463,-62.6936417,1,0.5,SI,NO,NO,NO,NO,NO,NO,,,"7HS. A 14 HS.",,,,,,,,,,,,,,,,,,,,,,,,,,,,,,,,,,,,,,,,,,,,,,NO,NO,NO,NO,NO,NO,,,
106702,"C.A.P.S.  4 Mayor Buratovich","Centro de Salud Público","Calle 30",,,"Calle 7","Mayor Buratovich","Mayor Buratovich",Villarino,"Buenos Aires",Argentina,1,,,-39.2592545,-62.6145058,1,0.5,SI,NO,SI,NO,NO,NO,NO,,,,,,,,,,,,,,,,,,,,,,,,,,,,,,,,,,,,,,,,,,,,,,,,,NO,NO,NO,NO,NO,NO,,,
106732,"C.A.P.S.  9 De Julio","Centro de Salud Público","Del Pozo",,,Jujuy,"San Nicolás","San Nicolas","San Nicolás de los Arroyos","Buenos Aires",Argentina,1,,,-33.3855203,-60.22191179999999,1,0.7,SI,NO,NO,NO,NO,NO,NO,"(03461) 15-405095",,,,,,,,,,,,,,,,,,,,,,,,,,,,,,,,,,,,,,,,,,,,,,,,NO,NO,NO,NO,NO,NO,,,
106742,"C.A.P.S.  Altos De La Reja","Centro de Salud Público",Pilcomayo,,,"Benito Juarez","La Reja","La Reja",Moreno,"Buenos Aires",Argentina,1,,,-34.6605554,-58.8419603,1,0.7,NO,NO,SI,NO,NO,NO,NO,,,,,,,,,,,,,,,,,,,,,,,,,,,,,,,,,,,,,,,,,,,,,,,,,NO,NO,NO,NO,NO,NO,,,
106762,"C.A.P.S.  Barrio Belgrano ","Centro de Salud Público",43,,,"Calle 50 ","Barrio Belgrano",Miramar,"General Alvarado","Buenos Aires",Argentina,1,,,-38.2703168,-57.8394498,1,0.5,SI,NO,SI,NO,NO,NO,NO,,,,,,,,,,,,,,,,,,,,,,,,,,,,,,,,,,,,,,,,,,,,,,,,,NO,NO,NO,NO,NO,NO,,,
106772,"C.A.P.S.  Barrio Ing. Pablo Marin","Centro de Salud Público",12,129,,,Navarro,Navarro,Navarro,"Buenos Aires",Argentina,1,,,-35.0125453,-59.2771923,1,0.9,NO,NO,SI,NO,NO,NO,NO,,,,,,,,,,,,,,,,,,"Griselda Killian",,,,,,,,,,,,,,,,,,,,,,,,,,,,,,,NO,NO,NO,NO,NO,NO,,,
106782,"C.A.P.S.  Barrio Oeste ","Centro de Salud Público",55,1261,,"Av. 26 ","Barrio Oeste",Miramar,"General Alvarado","Buenos Aires",Argentina,1,,,-38.2816651,-57.85282480000001,1,0.9,SI,NO,SI,NO,NO,NO,NO,,,,,,,,,,,,,,,,,,,,,,,,,,,,,,,,,,,,,,,,,,,,,,,,,NO,NO,NO,NO,NO,NO,,,
106842,"C.A.P.S.  Carupa","Centro de Salud Público","Ruperto Mazza",1154,,,Tigre,Tigre,Tigre,"Buenos Aires",Argentina,1,,,-34.4363492,-58.5752181,1,0.9,SI,NO,SI,SI,NO,SI,NO,"(011) 45124513",,,,,,,,,,,,,,"(011) 45124513",capscarupa@tigre.gov.ar,,"Dr. Miguel Angel Russo, M.P. N° 45.707",,,,"(011) 45124513",,,,,,"Ofrece asesoramiento sobre interrupción legal del embarazo",,,,,,,,"(011) 45124513",,,,,,,,,,,,,NO,NO,NO,NO,NO,NO,,,
106862,"C.A.P.S.  Conesa","Centro de Salud Público",Rivadavia,,,Formosa,"San Nicolás","San Nicolas","San Nicolás de los Arroyos","Buenos Aires",Argentina,1,,,-34.6045547,-58.3802473,1,0.5,SI,NO,NO,NO,NO,NO,NO,"(03461) 49-2041",,,,,,,,,,,,,,,,,,,,,,,,,,,,,,,,,,,,,,,,,,,,,,,,NO,NO,NO,NO,NO,NO,,,
106882,"C.A.P.S.  Del Centro","Centro de Salud Público",32,1440,,,Miramar,Miramar,"General Alvarado","Buenos Aires",Argentina,1,,,-38.27010569999999,-57.8443957,1,0.9,NO,NO,SI,NO,NO,NO,NO,,,,,,,,,,,,,,,,,,,,,,,,,,,,,,,,,,,,,,,,,,,,,,,,,NO,NO,NO,NO,NO,NO,,,
106922,"C.A.P.S.  Dra Mabel Santiago","Centro de Salud Público","San Martín",3151,,,Saladillo,Saladillo,Saladillo,"Buenos Aires",Argentina,1,,,-35.6392344,-59.7789367,1,0.9,NO,NO,SI,NO,NO,NO,NO,,,,,,,,,,,,,,,"(02344) 453030",,,"Dr Zalazar Nestor Edgardo Mp 18.418",,,,,,,,,,,,,,,,,,,,,,,,,,,,,,,NO,NO,NO,NO,NO,NO,,,
106982,"C.A.P.S. Julio Bavio – La cumparcita","Centro de Salud Público",Sarmiento,1626,,"San Juan","Capitán Sarmiento","Capitán Sarmiento","Capitán Sarmiento","Buenos Aires",Argentina,1,,,-34.1700117,-59.7881954,1,0.7,SI,NO,NO,SI,NO,NO,NO,"(02478) 48-1102",,,,,,,,,,,,,,,,,,,,,"(02478) 48-1102",,,,,,"No esta confirmado que asesore o realice interrupción legal del embarazo",,,,,,,,,,,,,,,,,,,,,NO,NO,NO,NO,NO,NO,,,
107002,"C.A.P.S. La Loma","Centro de Salud Público","La Plata",,,Marmol,"Capitán Sarmiento","Capitán Sarmiento","Capitán Sarmiento","Buenos Aires",Argentina,1,,,-34.1711872,-59.7936926,1,0.5,SI,NO,SI,NO,NO,NO,NO,"(02478) 48-3479",,,,,,,,,,,,,,"(02478) 48-3479",,,"Dr. Walter Daniel Pavicich, M.P. N° 63.786",,,,,,,,,,,,,,,,,,,,,,,,,,,,,,,NO,NO,NO,NO,NO,NO,,,
107012,"C.A.P.S.  La Luisa","Centro de Salud Público","Cabo O. Fregotte",,,,"La Luisa","La Luisa","Capitán Sarmiento","Buenos Aires",Argentina,1,,,-34.12757819999999,-59.92722329999999,1,0.5,NO,NO,SI,NO,NO,NO,NO,,,,,,,,,,,,,,,"(02478) 45-0906",,,"Dr. Adolfo Hipólito Zapata, M.P. N° 61.289",,,,,,,,,,,,,,,,,,,,,,,,,,,,,,,NO,NO,NO,NO,NO,NO,,,
107042,"C.A.P.S.  Los Cachorros","Centro de Salud Público","Las Margaritas",1156,,,Pilar,Pilar,Pilar,"Buenos Aires",Argentina,1,,,-34.4469464,-58.9248079,1,0.7,SI,NO,SI,NO,NO,NO,NO,"(02320) 472100",,"24 hs.",,,,,,,,,,,,"(02320) 472100",,,,,,,"(02320) 472100",,,,,,"No esta confirmado que asesore o realice interrupción legal del embarazo",,,,,,,,"(02320) 472100",,,,,,,,,,,,,NO,NO,NO,NO,NO,NO,,,
107062,"C.A.P.S.  Los Pozos","Centro de Salud Público",Necochea,,,"Luzuriaga Urbinea",Cañuelas,Cañuelas,Cañuelas,"Buenos Aires",Argentina,1,,,-35.04914249999999,-58.75950530000001,1,0.5,NO,SI,NO,NO,NO,NO,NO,,,,,,,,"(02226) 49-7583",,,,,,,"(02226) 49-7583",,,,,,,,,,,,,,,,,,,,,,,,,,,,,,,,,,NO,NO,NO,NO,NO,NO,,,
107072,"C.A.P.S.  Manuel Alberti","Centro de Salud Público",Pailette,,Pilar,"Santa Rita",,Pilar,Pilar,"Buenos Aires",Argentina,1,,,-34.458529,-58.777492,1,0.5,SI,SI,SI,NO,NO,NO,NO,"(02320) 474400/474140",,"24 hs.",,,,,"(02320) 474400/474140",,"Jueves de 12  a 14hs",,,,,"(02320) 474400/474140",,,,,,,"(02320) 474400/474140",,,,,,"No esta confirmado que asesore o realice interrupción legal del embarazo",,,,,,,,"(02320) 474400/474140",,,,,,,,,,,,,NO,NO,NO,NO,NO,NO,,,
107092,"C.A.P.S.  Martinez","Centro de Salud Público","Saenz Valiente",2110,,,Martínez,Martínez,"San Isidro","Buenos Aires",Argentina,1,,,-34.4965007,-58.52636459999999,1,0.9,NO,NO,SI,NO,NO,NO,NO,,,,,,,,,,,,,,,"(011) 45803125",,,,,,,,,,,,,,,,,,,,,,,,,,,,,,,,,,NO,NO,NO,NO,NO,NO,,,
107102,"C.A.P.S.  Máximo Paz","Centro de Salud Público",Belgrano,,,"Colectora Ruta 205",Cañuelas,Cañuelas,Cañuelas,"Buenos Aires",Argentina,1,,,-35.0533783,-58.7578422,1,0.7,NO,SI,NO,NO,NO,NO,NO,,,,,,,,"(02226) 43-0944",,,,,,,"(02226) 43-0944",,,,,,,,,,,,,,,,,,,,,,,,,,,,,,,,,,NO,NO,NO,NO,NO,NO,,,
107172,"C.A.P.S.  N° 17","Centro de Salud Público","De Marco",101,,Coltelli,Campana,Campana,Campana,"Buenos Aires",Argentina,1,,,-34.1633346,-58.95926429999999,1,0.5,NO,NO,SI,NO,NO,NO,NO,,,,,,,,,,,,,,,"(03489) 44-4367",,,"Dra. María Cecilia Bernatzky, M.P. N° 55.671",,,,,,,,,,,,,,,,,,,,,,,,,,,,,,,NO,NO,NO,NO,NO,NO,,,
107192,"C.A.P.S.  N° 20 ","Centro de Salud Público",Liniers,78,,,"Barrio Sarmiento",Campana,Campana,"Buenos Aires",Argentina,1,,,-34.1794603,-58.944585,1,0.9,NO,NO,SI,NO,NO,NO,NO,,,,,,,,,,,,,,,"(03489) 43-7553",,,"Dra. María Cecilia Bernatzky, M.P. N° 55.671",,,,,,,,,,,,,,,,,,,,,,,,,,,,,,,NO,NO,NO,NO,NO,NO,,,
107202,"C.A.P.S.  N° 21 Albizola","Centro de Salud Público","Mateo Blanco",230,,,Campana,Campana,Campana,"Buenos Aires",Argentina,1,,,-34.1633346,-58.95926429999999,1,0.5,NO,NO,SI,NO,NO,NO,NO,,,,,,,,,,,,,,,"(03489) 44-7490",,,"Dra. María De Las Mercedes, M.P. N° 17.522",,,,,,,,,,,,,,,,,,,,,,,,,,,,,,,NO,NO,NO,NO,NO,NO,,,
107212,"C.A.P.S.  N° 25  ","Centro de Salud Público",Maipu,735,,,"Barrio 9 De Julio",Campana,Campana,"Buenos Aires",Argentina,1,,,-34.1841077,-58.95959049999999,1,0.9,NO,NO,SI,NO,NO,NO,NO,,,,,,,,,,,,,,,"(03489) 43-7550",,,,,,,,,,,,,,,,,,,,,,,,,,,,,,,,,,NO,NO,NO,NO,NO,NO,,,
107242,"C.A.P.S.  N° 5","Centro de Salud Público",Aguiar,162,,,Campana,Campana,Campana,"Buenos Aires",Argentina,1,,,-34.2062535,-58.93985259999999,1,0.9,NO,NO,SI,NO,NO,NO,NO,,,,,,,,,,,,,,,"(03489) 44-0050",,,"Dra. María Cecilia Bernatzky, M.P. N° 55.671",,,,,,,,,,,,,,,,,,,,,,,,,,,,,,,NO,NO,NO,NO,NO,NO,,,
107282,"C.A.P.S.  N° 8 Islas","Centro de Salud Público","Canal Alem",,,"Rio Carabelas",Campana,Campana,Campana,"Buenos Aires",Argentina,1,,,-34.1633346,-58.95926429999999,1,0.5,NO,NO,SI,NO,NO,NO,NO,,,,,,,,,,,,,,,"(03489) 15455749",,,"Dr. Antonio Roberto Simioli, M.P. N° 34.180",,,,,,,,,,,,,,,,,,,,,,,,,,,,,,,NO,NO,NO,NO,NO,NO,,,
107322,"C.A.P.S.  Nº 1 La Argentina","Centro de Salud Público","Sargento Cabral",,,"Estanislao Del Campo","Barrio Las Malvinas","General Rodríguez","General Rodríguez","Buenos Aires",Argentina,1,,,-34.5986671,-58.93630899999999,1,0.7,SI,NO,SI,NO,NO,NO,NO,"(011) 1541666719",,,,,,,,,,,,,,"(011) 1541666719",,,,,,,,,,,,,,,,,,,,,,,,,,,,,,,,,,NO,NO,NO,NO,NO,NO,,,
107332,"C.A.P.S.  Nº 21 Presidente Peron","Centro de Salud Público",Marconi,,,"José Hernández",Claypole,Claypole,"Almirante Brown","Buenos Aires",Argentina,1,,,-34.8169679,-58.3660322,1,0.7,NO,NO,SI,NO,NO,NO,NO,,,,,,,,,,,,,,,"(011) 4236-8569",,,"Dr. Pablo Omar Herrera, M.P. N° 111.751",,,,,,,,,,,,,,,,,,,,,,,,,,,,,,,NO,NO,NO,NO,NO,NO,,,
107342,"C.A.P.S.  Pinazo","Centro de Salud Público",Copello,7837,Pilar,"Santa Cecilia",,Pilar,Pilar,"Buenos Aires",Argentina,1,,,-34.4520325,-58.8134881,1,0.5,SI,NO,SI,NO,NO,NO,NO,"(02320) 401012",,"24 hs.",,,,,,,,,,,,"(02320) 401012",,,,,,,"(02320) 401012",,,,,,"No esta confirmado que asesore o realice interrupción legal del embarazo",,,,,,,,"(02320) 401012",,,,,,,,,,,,,NO,NO,NO,NO,NO,NO,,,
107352,"C.A.P.S. Ramón Carrillo","Centro de Salud Público",Santamarina,1853,,,Laprida,Laprida,Laprida,"Buenos Aires",Argentina,1,,,-37.5441082,-60.8020965,1,0.9,NO,NO,SI,NO,NO,NO,NO,,,,,,,,,,,,,,,"(02285) 420352",administracionhospital@laprida.net,,"Dra. María Jesús Pelaez, M.P. N° 113.652",,,,,,,,,,,,,,,,,,,,,,,,,,,,,,,NO,NO,NO,NO,NO,NO,,,
107382,"C.A.P.S.  San Cayetano","Centro de Salud Público","La Pampa",,,Circunvalación,"Capitán Sarmiento","Capitán Sarmiento","Capitán Sarmiento","Buenos Aires",Argentina,1,,,-34.1801819,-59.78798849999999,1,0.7,NO,NO,SI,NO,NO,NO,NO,,,,,,,,,,,,,,,"(02478) 48-1719",,,"Dr. Jorge Luis Senfet, M.P. N° 26.344",,,,,,,,,,,,,,,,,,,,,,,,,,,,,,,NO,NO,NO,NO,NO,NO,,,
107392,"C.A.P.S.  San Donato","Centro de Salud Público",Alvear,838,,"84 y 82",Chivilcoy,Chivilcoy,Chivilcoy,"Buenos Aires",Argentina,1,,,-34.9062845,-60.0035061,1,0.9,NO,NO,SI,NO,NO,NO,NO,,,,,,,,,,,,,,,,,,"Jaime Carmen",,,,,,,,,,,,,,,,,,,,,,,,,,,,,,,NO,NO,NO,NO,NO,NO,,,
107412,"C.A.P.S. Santa Rosa","Centro de Salud Público","San Martín",63,,,Cañuelas,Cañuelas,Cañuelas,"Buenos Aires",Argentina,1,,,-35.0590574,-58.76601849999999,1,0.9,NO,SI,NO,NO,NO,NO,NO,,,,,,,,"(02226) 49-7952",,,,,,,"(02226) 49-7952",,,,,,,,,,,,,,,,,,,,,,,,,,,,,,,,,,NO,NO,NO,NO,NO,NO,,,
107422,"C.A.P.S.  Santa Teresa","Centro de Salud Público",Belice,,,Checoslovaquia,,Pilar,Pilar,"Buenos Aires",Argentina,1,,,-34.4147006,-58.77592370000001,1,0.7,SI,NO,NO,NO,NO,NO,NO,,,"24 hs.",,,,,,,,,,,,,,,,,,,,,,,,,,,,,,,,,,,,,,,,,,,,,,NO,NO,NO,NO,NO,NO,,,
107442,"C.A.P.S.  Unidad Sanitaria San Martin De Porres","Centro de Salud Público",Pellegrini,1940,,,Zárate,Zárate,Zárate,"Buenos Aires",Argentina,1,,,-34.1088303,-59.02928540000001,1,0.9,NO,NO,SI,NO,NO,NO,NO,,,,,,,,,,,,,,,"(03487) 427663",,,"Odontologa Piccirilli, Maria Elena Mp 50451",,,,,,,,,,,,,,,,,,,,,,,,,,,,,,,NO,NO,NO,NO,NO,NO,,,
107452,"C.A.P.S.  Venerable Madre De San Jose Barrio Camil","Centro de Salud Público","Gral. Las Heras",956,,,Muñiz,Muñiz,"San Miguel","Buenos Aires",Argentina,-1,,,-34.5452141,-58.70320950000001,,0.9,NO,NO,SI,NO,NO,NO,NO,,,,,,,,,,,,,,,,,,"Olga Casal",,,,,,,,,,,,,,,,,,,,,,,,,,,,,,,NO,NO,NO,NO,NO,NO,,,
107462,"C.A.P.S.  Villa Adelina","Centro de Salud Público","Av. De Mayo",1397,,,"Villa Adelina","Villa Adelina","San Isidro","Buenos Aires",Argentina,1,,,-34.5212863,-58.5450004,1,0.9,NO,NO,SI,NO,NO,NO,NO,,,,,,,,,,,,,,,"(011) 4513-7823",,,,,,,,,,,,,,,,,,,,,,,,,,,,,,,,,,NO,NO,NO,NO,NO,NO,,,
107472,"C.A.P.S.  Villa Vatteone","Centro de Salud Público","12 De Octubre",363,,,"Villa Vatteone","Villa Vatteone","Florencio Varela","Buenos Aires",Argentina,1,,,-34.8166556,-58.27301900000001,1,0.9,NO,NO,SI,SI,NO,NO,NO,,,,,,,,,,,,,,,,,,,,,,,,,,,,"Ofrece asesoramiento sobre interrupción legal del embarazo",,,,,,,,,,,,,,,,,,,,,NO,NO,NO,NO,NO,NO,,,
107482,"Casa de la Juventud","Organización Social","Av. Eva Perón (ex Pierrestegui)",,,Baradero,"Morón Sur","Morón Sur",Morón,"Buenos Aires",Argentina,1,,,-34.6332859,-58.6357,1,0.5,SI,NO,NO,NO,NO,NO,NO,"(011) 4697-0426",,,"Referente: Mariana",,,,,,,,,,,"2 Dispensers",,,,,,,,,,,,,,,,,,,,,,,,,,,,,,,,,,NO,NO,NO,NO,NO,NO,,,
107492,"Casa Promotora De Salud","Centro de Salud Público","Ricardo Balbín",1237,,,"Barrio Villa Vengochea","General Rodríguez","General Rodríguez","Buenos Aires",Argentina,1,,,-34.6036844,-58.3815591,1,0.5,SI,NO,NO,NO,NO,NO,NO,,,,"Referente: Laura Gusoni",,,,,,,,,,,,,,,,,,,,,,,,,,,,,,,,,,,,,,,,,,,,,NO,NO,NO,NO,NO,NO,,,
107502,"Ceat N° 1","Centro de Salud Público",Liniers,950,,,,Pergamino,Pergamino,"Buenos Aires",Argentina,1,,,-33.9111211,-60.5824284,1,0.9,SI,NO,NO,NO,NO,NO,NO,"(02477) 437036",,"Lunes a viernes de 8 a 17hs",,,,,,,,,,,,,,,,,,,,,,,,,,,,,,,,,,,,,,,,,,,,,,NO,NO,NO,NO,NO,NO,,,
107512,"Cemap Construir Salud","Centro de Salud Público","Av. Mitre",80,,,"San Miguel","San Miguel","San Miguel","Buenos Aires",Argentina,1,,,-34.543055,-58.7118577,1,0.5,NO,NO,SI,NO,NO,NO,NO,,,,,,,,,,,,,,,,,,"Dr. Leanza Carlos Alberto Mp 47791",,,,,,,,,,,,,,,,,,,,,,,,,,,,,,,NO,NO,NO,NO,NO,NO,,,
107522,"Cemap Dr. Ramon Carrillo","Centro de Salud Público","San Martín",724,,,Quilmes,Quilmes,Quilmes,"Buenos Aires",Argentina,1,,,-34.72487,-58.2576822,1,1,NO,NO,SI,NO,NO,NO,NO,,,,,,,,,,,,,,,,,,"Dr. Leanza Carlos Alberto",,,,,,,,,,,,,,,,,,,,,,,,,,,,,,,NO,NO,NO,NO,NO,NO,,,
107532,Cempre,"Centro de Salud Público",Pellegrini,111,,Rivadavia,"San Nicolás","San Nicolas","San Nicolás de los Arroyos","Buenos Aires",Argentina,1,,,-33.330321,-60.214905,1,1,SI,NO,SI,NO,NO,NO,NO,"(03461) 50-8835",,,,,,,,,,,,,,,,,,,,,,,,,,,,,,,,,,,,,,,,,,,,,,,,NO,NO,NO,NO,NO,NO,,,
107542,"Oficina de Empleo","Organismo Público","San Martín",471,,,,Morón,Morón,"Buenos Aires",Argentina,1,,,-34.653622,-58.6228186,1,1,SI,NO,NO,NO,NO,NO,NO,"(011) 4489-0852",,,"Referente: Augusto, Daniel",,,,,,,,,,,,,,,,,,,,,,,,,,,,,,,,,,,,,,,,,,,,,NO,NO,NO,NO,NO,NO,,,
107562,"Centro ""vivir Sin Violencia"" Municipal","Centro de Salud Público",Rivadavia,775,,,,"General Rodríguez","General Rodríguez","Buenos Aires",Argentina,1,,,-34.6115448,-58.9542539,1,0.9,SI,NO,NO,NO,NO,NO,NO,"(0237) 4844878",,"De 08:00 a 14:00 hs.",,,"Pasillo Central",,,,,,,,,,,,,,,,,,,,,,,,,,,,,,,,,,,,,,,,,,,NO,NO,NO,NO,NO,NO,,,
107592,"Centro Asistencial Campo De Mayo - Escuela De Subo","Centro de Salud Público","Ruta Nacional  202",,,"Ruta Nacional Nro 8","Campo De Mayo","Campo De Mayo","San Miguel","Buenos Aires",Argentina,1,,,-34.5549429,-58.6575748,1,0.5,NO,NO,SI,NO,NO,NO,NO,,,,,,,,,,,,,,,"(011) 4666-3463",,,"My Med Perez",,,,,,,,,,,,,,,,,,,,,,,,,,,,,,,NO,NO,NO,NO,NO,NO,,,
107602,"Centro Asistencial De Hilario Ascasubi","Centro de Salud Público","Ing. Urgoitti",269,,,Villarino,Villarino,Villarino,"Buenos Aires",Argentina,1,,,-39.0348903,-62.6383524,1,0.5,NO,SI,SI,NO,NO,NO,NO,,,,,,,,"(02928) 491055",,,,,,,,,,,,,,,,,,,,,,,,,,,,,,,,,,,,,,,,,NO,NO,NO,NO,NO,NO,,,
107692,"C.A.P.S Dr. Ramon Carrillo","Centro de Salud Público",Tomkinson,2130,,,"San Isidro","San Isidro","San Isidro","Buenos Aires",Argentina,1,,,-34.4765996,-58.5457268,1,1,NO,NO,SI,NO,NO,NO,NO,,,,,,,,,,,,,,,"(011) 47173148",,,,,,,,,,,,,,,,,,,,,,,,,,,,,,,,,,NO,NO,NO,NO,NO,NO,,,
107702,"Centro Comunitario De Cuartel V","Centro de Salud Público","Obrador Municipal",,,,,Moreno,Moreno,"Buenos Aires",Argentina,1,,,-34.6340099,-58.791382,1,0.5,SI,NO,NO,NO,NO,NO,NO,"(0237) 4629034",,,,,,,,,,,,,,,,,,,,,,,,,,,,,,,,,,,,,,,,,,,,,,,,NO,NO,NO,NO,NO,NO,,,
107722,"Centro Comunitario Villa Alicia","Centro de Salud Público","Calle 13",,,"Calle 18 Villa Alicia",Pergamino,Pergamino,Pergamino,"Buenos Aires",Argentina,1,,,-33.8912831,-60.5745999,1,0.5,NO,NO,SI,NO,NO,NO,NO,,,,,,,,,,,,,,,"(02477) 442917",,,,,,,,,,,,,,,,,,,,,,,,,,,,,,,,,,NO,NO,NO,NO,NO,NO,,,
107732,"Centro Cultural El Galpon De Claypole","Establecimiento Educativo",Aquino,525,,,Claypole,Claypole,"Almirante Brown","Buenos Aires",Argentina,1,,,-34.8150945,-58.35893160000001,1,0.9,SI,NO,NO,NO,NO,NO,NO,"(011) 4238-8454","monona_76_86@hotmail.com/ mvperezavila@yahoo.com.a",,,,,,,,,,,,,,,,,,,,,,,,,,,,,,,,,,,,,,,,,,,,,,,NO,NO,NO,NO,NO,NO,,,
107742,"Centro Cultural El Hornero","Organización Social","El Litoral",808,,,"Lomas De Zamora","Lomas De Zamora","Lomas De Zamora","Buenos Aires",Argentina,-1,,,-34.75284480000001,-58.3507684,,1,SI,NO,NO,NO,NO,NO,NO,,,"Miercoles de 16 a 18 y Viernes de 18 a 21",,,,,,,,,,,,,,,,,,,,,,,,,,,,,,,,,,,,,,,,,,,,,,NO,NO,NO,NO,NO,NO,,,
107752,"Centro Cultural El Transformador","Organización Social",Caseros,,,Lavallol,"Haedo Norte","Haedo Norte",Morón,"Buenos Aires",Argentina,1,,,-34.636844,-58.3815591,1,0.5,SI,NO,NO,NO,NO,NO,NO,"(011) 4659-8757",,,"Referente: Aylin Fernández",,,,,,,,,,,"Cantidad: 3 dispensers",,,,,,,,,,,,,,,,,,,,,,,,,,,,,,,,,,NO,NO,NO,NO,NO,NO,,,
107762,"Centro Cultural La Casa del Pueblo","Organización Social","Marcos Sastre",57,,,"Haedo Centro","Haedo Centro",Morón,"Buenos Aires",Argentina,1,,,-34.6456622,-58.5932577,1,89999,SI,NO,NO,NO,NO,NO,NO,"(011) 4659-5516",,,"Referente: Mariano",,,,,,,,,,,,,,,,,,,,,,,,,,,,,,,,,,,,,,,,,,,,,NO,NO,NO,NO,NO,NO,,,
107772,"Centro Cultural La Gloriosa","Organización Social","Camino Negro",3701,,Amberes,"Lomas De Zamora","Lomas De Zamora","Lomas De Zamora","Buenos Aires",Argentina,1,,,-34.7665569,-58.3536655,1,0.7,SI,NO,NO,NO,NO,NO,NO,,,,,,,,,,,,,,,,,,,,,,,,,,,,,,,,,,,,,,,,,,,,,,,,,NO,NO,NO,NO,NO,NO,,,
107782,"Centro De Adultos Mayores","Centro de Salud Público",Soler,255,,Olazábal,,"Carlos Tejedor",Ituzaingó,"Buenos Aires",Argentina,1,,,-34.657565,-58.66830679999999,1,0.9,SI,NO,SI,NO,NO,NO,NO,"(011) 4624-0190",,,,,,,,,,,,,,"(011) 4624-0190",,,,,,,,,,,,,,,,,,,,,,,,,,,,,,,,,,NO,NO,NO,NO,NO,NO,,,
107792,"Centro de Atención de ETS","Centro de Salud Público","Av. Libertador",751,,,Moreno,Moreno,Moreno,"Buenos Aires",Argentina,1,,,-34.6413309,-58.7881998999999,1,0.9,SI,NO,SI,NO,NO,NO,NO,"(0237) 4662448",,"Lunes a Viernes de 8:00 a 18:00 hs.",,,,,,,,,,,,"(0237) 4662448",,,"Aste Graciela Margarita",,,,,,,,,,,,,,,,,,,,,,,,,,,,,,,NO,NO,NO,NO,NO,NO,,,
107802,"Centro de Atención Dr. Rurilio Manuel Zuccherino","Centro de Salud Público",Colón,393,,,América,America,Rivadavia,"Buenos Aires",Argentina,1,,,-35.489143,-62.97563,1,0.5,SI,NO,SI,SI,NO,SI,NO,"(02337) 454518/2100",,,,,,,,,,,,,,"(02337) 454518/2100",,,,,,,"(02337) 454518/2100",,,,,,"No esta confirmado que asesore o realice interrupción legal del embarazo",,,,,,,,"(02337) 454518/2100",,,,,,,,,,,,,NO,NO,NO,NO,NO,NO,,,
107812,"Centro de Atención Familiar y de Salud Juana Manso","Centro de Salud Público","Juan Agustín García",5960,,,Tigre,Tigre,Tigre,"Buenos Aires",Argentina,1,,,-34.425087,-58.5796585,1,0.5,SI,NO,SI,SI,NO,SI,NO,"(03327) 484107",,,,,,,,,,,,,,"(03327) 484107",,,"Dra. Laura Sabrina Gomel, M.P. N° 449.366",,,,"(03327) 484107",,,,,,"Ofrece asesoramiento sobre interrupción legal del embarazo",,,,,,,,"(03327) 484107",,,,,,,,,,,,,NO,NO,NO,NO,NO,NO,,,
107822,"Centro De Atencion Pesoa","Centro de Salud Público","Ernesto Rodriguez",,,O'higgins,"San Vicente","San Vicente","San Vicente","Buenos Aires",Argentina,1,,,-35.0311935,-58.41208210000001,1,0.7,NO,NO,SI,NO,NO,NO,NO,,,,,,,,,,,,,,,"(02225) 481101 INT.129/130",,,,,,,,,,,,,,,,,,,,,,,,,,,,,,,,,,NO,NO,NO,NO,NO,NO,,,
107842,"Centro De Atencion Primaria Barrio Acevedo","Centro de Salud Público","Raimundo R.",186,,,Pergamino,Pergamino,Pergamino,"Buenos Aires",Argentina,1,,,-33.8865164,-60.5639629,1,0.9,SI,NO,SI,SI,NO,SI,NO,"(02477) 434693",,,,,,,,,,,,,,"(02477) 434693",,,,,,,"(02477) 434693",,,,,,"No esta confirmado que asesore o realice interrupción legal del embarazo",,,,,,,,"(02477) 434693",,,,,,,,,,,,,NO,NO,NO,NO,NO,NO,,,
107852,"Centro De Atencion Primaria De La Salud Belgrano","Centro de Salud Público","Av. Belgrano",1661,,,"Don Torcuato Este","Don Torcuato",Tigre,"Buenos Aires",Argentina,1,,,-34.6036844,-58.3815591,1,0.5,NO,NO,SI,NO,NO,NO,NO,,,,,,,,,,,,,,,"(011) 47317629",capsbelgrano@tigre.gov.ar,,"Dra. Verónica Nicola, M.P. N° 452.314",,,,,,,,,,,,,,,,,,,,,,,,,,,,,,,NO,NO,NO,NO,NO,NO,,,
107862,"Centro De Atencion Primaria De La Salud De Gardey","Centro de Salud Público","Av. 13",580,,,Gardey,Gardey,Tandil,"Buenos Aires",Argentina,1,,,-37.27976960000001,-59.3629127,1,0.5,NO,NO,SI,NO,NO,NO,NO,,,,,,,,,,,,,,,"(02293) 493045",,,,,,,,,,,,,,,,,,,,,,,,,,,,,,,,,,NO,NO,NO,NO,NO,NO,,,
107872,"Centro de Salud Dr Francisco Ravassi","Centro de Salud Público","José Hernández",,,,"Barrio Los Zorzales","San Carlos De Bolivar",Bolívar,"Buenos Aires",Argentina,1,,,-36.2391263,-61.1255879,1,0.5,NO,NO,SI,NO,NO,NO,NO,,,,,,,,,,,,,,,,,,,,,,,,,,,,,,,,,,,,,,,,,,,,,,,,,NO,NO,NO,NO,NO,NO,,,
107882,"Centro De Atencion Primaria De La Salud ","Centro de Salud Público","Avenida Calfucura",,,"La Pampa Barrio Jardin","San Carlos De Bolivar","San Carlos De Bolivar",Bolívar,"Buenos Aires",Argentina,-1,,,-36.2391263,-61.1255879,,0.5,SI,NO,SI,NO,NO,NO,NO,,,,,,,,,,,,,,,,,,,,,,,,,,,,,,,,,,,,,,,,,,,,,,,,,NO,NO,NO,NO,NO,NO,,,
107902,"Centro De Atencion Primaria De La Salud Intendente","Centro de Salud Público","Primera Junta",,,"San Marin ",Baradero,Baradero,Baradero,"Buenos Aires",Argentina,-1,,,-33.812014,-59.50463999999999,,0.5,NO,NO,SI,NO,NO,NO,NO,,,,,,,,,,,,,,,"(03329) 494-095",,,,,,,,,,,,,,,,,,,,,,,,,,,,,,,,,,NO,NO,NO,NO,NO,NO,,,
107912,"Centro De Atencion Primaria De La Salud Jose P. As","Centro de Salud Público",Boedo,,,"Costa De Rio Baradero ",Baradero,Baradero,Baradero,"Buenos Aires",Argentina,-1,,,-33.812014,-59.50463999999999,,0.5,NO,NO,SI,NO,NO,NO,NO,,,,,,,,,,,,,,,,,,,,,,,,,,,,,,,,,,,,,,,,,,,,,,,,,NO,NO,NO,NO,NO,NO,,,
107942,"C.A.P.S Martin Guemes","Centro de Salud Público",45,,,"Calle 38",Mercedes,Mercedes,Mercedes,"Buenos Aires",Argentina,1,,,-34.6578993,-59.4428269,1,0.9,NO,NO,SI,NO,NO,NO,NO,,,,,,,,,,,,,,,"(02324) 427893",,,,,,,,,,,,,,,,,,,,,,,,,,,,,,,,,,NO,NO,NO,NO,NO,NO,,,
107962,"Centro De Atencion Primaria De La Salud Open Door","Centro de Salud Público",Corrientes,,,"Santiago Del Estero","Open Door (Est. Dr. Domingo Cabred) (Open Door)","Open Door (Est. Dr. Domingo Cabred) (Open Door)",Luján,"Buenos Aires",Argentina,1,,,-34.49112,-59.07522409999999,1,0.5,NO,NO,SI,NO,NO,NO,NO,,,,,,,,,,,,,,,"(02323) 496230",,,,,,,,,,,,,,,,,,,,,,,,,,,,,,,,,,NO,NO,NO,NO,NO,NO,,,
107982,"C.A.P.S San Francisco","Centro de Salud Público",7,,,"Calle 106  Barrio Guemes",Mercedes,Mercedes,Mercedes,"Buenos Aires",Argentina,1,,,-34.6510201,-59.43059960000001,1,0.5,NO,NO,SI,NO,NO,NO,NO,,,,,,,,,,,,,,,"(02324) 424870",,,,,,,,,,,,,,,,,,,,,,,,,,,,,,,,,,NO,NO,NO,NO,NO,NO,,,
108002,"Centro De Atencion Primaria Dr Pascual Giudice","Centro de Salud Público","La Paz",,,"San Martín",Ensenada,Ensenada,Ensenada,"Buenos Aires",Argentina,1,,,-34.8561466,-57.91167340000001,1,0.7,NO,NO,SI,NO,NO,NO,NO,"(0221) 4691268",,,,,,,,,,,,,,"(0221) 4691268",,,"Sanchez Marta",,,,,,,,,,,,,,,,,,,,,,,,,,,,,,,NO,NO,NO,NO,NO,NO,,,
108042,"Centro De Atencion Primaria Milagros","Centro de Salud Público",34,202,,,"Barrio Fonavi","Norberto De La Riestra","25 De Mayo","Buenos Aires",Argentina,1,,,-35.4391272,-60.1855455,1,0.9,NO,NO,SI,NO,NO,NO,NO,,,,,,,,,,,,,,,,,"8 a 12 / 15 a 20","Noemí Esther Villalonga",,,,,,,,,,,,,,,,,,,,,,,,,,,,,,,NO,NO,NO,NO,NO,NO,,,
108052,"Centro De Atencion Primaria Pinzon","Centro de Salud Público","Avenida 2",,,"9 De Julio",Pinzon,Pinzon,Pergamino,"Buenos Aires",Argentina,1,,,-33.9833298,-60.73332980000001,1,0.5,NO,NO,SI,NO,NO,NO,NO,,,,,,,,,,,,,,,"(02477) 483005",,,,,,,,,,,,,,,,,,,,,,,,,,,,,,,,,,NO,NO,NO,NO,NO,NO,,,
108072,"Dispensario Rosa Mayor","Centro de Salud Público","Boer 430 Barrio Villa Campi",,,,"San Nicolás","San Nicolas","San Nicolás de los Arroyos","Buenos Aires",Argentina,1,,,-33.3334669,-60.2110494,1,0.5,NO,NO,SI,NO,NO,NO,NO,,,,,,,,,,,,,,,,,,,,,,,,,,,,,,,,,,,,,,,,,,,,,,,,,NO,NO,NO,NO,NO,NO,,,
108082,"Consultorios Externos Y Diag, por Imagenes","Centro de Salud Público","25 De Mayo N",70,,,"Marcos Paz","Marcos Paz","Marcos Paz","Buenos Aires",Argentina,1,,,-34.7830873,-58.83822279999999,1,0.9,NO,NO,SI,NO,NO,NO,NO,,,,,,,,,,,,,,,,,,"Dr Zabaljauregui Nestor Jose Mp 113.358",,,,,,,,,,,,,,,,,,,,,,,,,,,,,,,NO,NO,NO,NO,NO,NO,,,
108092,"Centro De Diabetes Y Enfermedades Metabolicas Dr.","Centro de Salud Público","San Martín",1675,,,"Los Polvorines","Los Polvorines","Malvinas Argentinas","Buenos Aires",Argentina,1,,,-34.50734449999999,-58.70591630000001,1,0.9,NO,NO,SI,NO,NO,NO,NO,,,,,,,,,,,,,,,,,,"Dra. Luisa Mabel Carrió, M.P. N° 53.110",,,,,,,,,,,,,,,,,,,,,,,,,,,,,,,NO,NO,NO,NO,NO,NO,,,
108112,"Centro De Entrenamiento Pergamino","Centro de Salud Público","Ruta 8",,,,,Pergamino,Pergamino,"Buenos Aires",Argentina,1,,,-33.8940933,-60.5450531,1,0.7,SI,NO,NO,NO,NO,NO,NO,,,,,,,,,,,,,,,,,,,,,,,,,,,,,,,,,,,,,,,,,,,,,,,,,NO,NO,NO,NO,NO,NO,,,
108122,"Centro De Especialidades Medicas Ambulatorias Cema","Centro de Salud Público",Pehuajó,250,,"Cano y Gaboto","Mar Del Plata","Mar Del Plata","General Pueyrredón","Buenos Aires",Argentina,1,,,-38.0143958,-57.58240229999999,1,0.9,SI,NO,SI,SI,NO,NO,NO,"(0223) 4997900",,,,,,,,,,,,,,"(0223) 4997900",,,"Doctor Alejandro Ruben Cristaldi Mp 930333",,,,"(0223) 4997900",,,,,,"Ofrece asesoramiento sobre interrupción legal del embarazo",,,,,,,,,,,,,,,,,,,,,NO,NO,NO,NO,NO,NO,,,
108132,"Centro De Formacion Profesional 405","Establecimiento Educativo",Cerrito,290,,,"Lomas De Zamora","Lomas De Zamora","Lomas De Zamora","Buenos Aires",Argentina,1,,,-34.7651048,-58.3937378,1,0.9,SI,NO,NO,NO,NO,NO,NO,,,,,,,,,,,,,,,,,,,,,,,,,,,,,,,,,,,,,,,,,,,,,,,,,NO,NO,NO,NO,NO,NO,,,
108142,"Centro De Integracion Comunitaria","Centro de Salud Público",Lobos,,,"Chascomús Bo. El Rocío",Bosques,Bosques,"Florencio Varela","Buenos Aires",Argentina,1,,,-34.8250771,-58.2246208,1,0.5,NO,NO,SI,NO,NO,NO,NO,,,,,,,,,,,,,,,,,,,,,,,,,,,,,,,,,,,,,,,,,,,,,,,,,NO,NO,NO,NO,NO,NO,,,
108152,"Centro De Integración Comunitaria (barrio Obrero)","Centro de Salud Público",169,,,33,Berisso,Berisso,Berisso,"Buenos Aires",Argentina,1,,,-34.8776772,-57.86548819999999,1,0.7,NO,SI,NO,NO,NO,NO,NO,,,,,,,,,,,,,,,,,,,,,,,,,,,,,,,,,,,,,,,,,,,,,,,,,NO,NO,NO,NO,NO,NO,,,
108162,"Centro De La Mujer Y Familia ""evita""","Centro de Salud Público","Presidente Perón",8737,,,"Pablo Podestá","Pablo Podestá","Tres De Febrero","Buenos Aires",Argentina,1,,,-34.57664280000001,-58.60774619999999,1,0.9,SI,NO,NO,NO,NO,NO,NO,,,,"Referente: Gabriel Restuccia ( Op. Común)",,,,,,,,,,,,,,,,,,,,,,,,,,,,,,,,,,,,,,,,,,,,,NO,NO,NO,NO,NO,NO,,,
108172,"Centro De Medicina Preventiva Dr. Ferreyra","Centro de Salud Público","Rivadavia ",45,,,"San Nicolás","San Nicolas","San Nicolás de los Arroyos","Buenos Aires",Argentina,1,,,-33.3334669,-60.2110494,1,0.5,NO,NO,SI,SI,NO,SI,NO,,,,,,,,,,,,,,,"(03461) 508830/36",,,,,,,"(03461) 508830/36",,,,,,"Ofrece asesoramiento sobre interrupción legal del embarazo",,,,,,,,"(03461) 508830/36",,,,,,,,,,,,,NO,NO,NO,NO,NO,NO,,,
108182,"Centro de Medicina Preventiva Dr. Rene Favaloro","Centro de Salud Público","Sitio De Montevideo",1862,,,"Lanús Oeste","Lanús Oeste",Lanús,"Buenos Aires",Argentina,1,,,-34.7113727,-58.3815199,1,0.9,NO,NO,SI,NO,NO,NO,NO,,,,,,,,,,,,,,,"(011) 4240-0493",,,,,,,,,,,,,,,,,,,,,,,,,,,,,,,,,,NO,NO,NO,NO,NO,NO,,,
108212,"Centro De Orientación Social","Organismo Público",Ayacucho,1432,,,"San Fernando","San Fernando","San Fernando","Buenos Aires",Argentina,1,,,-34.4439254,-58.5566859,1,1,NO,SI,NO,NO,NO,NO,NO,,,,,,,,"(011) 4746-4523",vih@sanfernando.gov.ar,,"Responsable: Mariano Schettini",www.facebook.com/vihsanfernando,,,,,,,,,,,,,,,,,,,,,,,,,,,,,,,,,,,,,NO,NO,NO,NO,NO,NO,,,
108222,"Centro de Salud ""cristina Cornou""","Centro de Salud Público",Dorrego,2766,,,,Moreno,Moreno,"Buenos Aires",Argentina,1,,,-34.645838,-58.78802,1,0.9,SI,NO,NO,NO,NO,NO,NO,,,"Lunes a Viernes de 9:00 a 21:00 hs.","Referente: María Rodríguez",,,,,,,,,,,,,,,,,,,,,,,,,,,,,,,,,,,,,,,,,,,,,NO,NO,NO,NO,NO,NO,,,
108232,"Centro de Salud Eva Peron","Centro de Salud Público",Catamarca,2166,,,"Mar de ajo","Mar Del Plata","General Pueyrredón","Buenos Aires",Argentina,-1,,,-38.0006633,-57.5549009,,0.9,SI,NO,NO,NO,NO,NO,NO,,,"Lunes a Viernes de 10:00 a 20:30 hs.","Marta Guerra",,,,,,,,,,,,,,,,,,,,,,,,,,,,,,,,,,,,,,,,,,,,,NO,NO,NO,NO,NO,NO,,,
108242,"CAPS Mercedes Sosa","Centro de Salud Público","Av. Eva Perón (ex Pierrestegui)",,PB,Baradero,"Morón Sur","Morón Sur",Morón,"Buenos Aires",Argentina,1,,,-34.6332859,-58.6357,1,0.5,SI,NO,SI,SI,NO,SI,NO,"(011) 4697-0312",,"Lunes a Viernes de 8 a 17 Hs.",,,,,,,,,,,,"(011) 4697-0312",,,,,,,"(011) 4697-0312",,,,,,"ofrece asesoramiento y realiza interrupción legal ",,,,,,,,"(011) 4697-0312",,,,,,,,,,,,,NO,NO,NO,NO,NO,NO,,,
108332,"Centro de Salud 8 De Octubre","Centro de Salud Público",Marañon,2220,,"Sanchez De Bustamante Barrio San Jorge","Villa De Mayo","Villa De Mayo","Malvinas Argentinas","Buenos Aires",Argentina,1,,,-34.51719569999999,-58.6827121,1,0.9,NO,NO,SI,NO,NO,NO,NO,,,,,,,,,,,,,,,,,,,,,,,,,,,,,,,,,,,,,,,,,,,,,,,,,NO,NO,NO,NO,NO,NO,,,
108352,"Centro de Salud Alfredo Villar","Centro de Salud Público",Formosa,,,"Corrientes  ","Maquinista Savio","Maquinista Savio",Escobar,"Buenos Aires",Argentina,1,,,-34.6036844,-58.3815591,1,0.5,NO,SI,SI,NO,NO,NO,NO,,,,,,,,"(03488) 481136",,"Miércoles de 9 a 12 hs.",,,,,"(03488) 481136",,,,,,,,,,,,,,,,,,,,,,,,,,,,,,,,,,NO,NO,NO,NO,NO,NO,,,
108362,"Centro de Salud Almafuerte","Centro de Salud Público","Gregoria Pérez",131,,,"Morón Sur","Morón Sur",Morón,"Buenos Aires",Argentina,-1,,,-34.6332859,-58.6357,1,0.5,SI,NO,NO,NO,NO,NO,NO,"(011) 4697-9407",,,"Región Sanitaria Vii - Ugc 6",,,,,,,,,,,,,,,,,,,,,,,,,,,,,,,,,,,,,,,,,,,,,NO,NO,NO,NO,NO,NO,,,
108372,"Centro de Salud Almirante Brown","Centro de Salud Público","Gral. Andrés",3010,,"Alemania - El Talar De Pacheco","El Talar","El Talar",Tigre,"Buenos Aires",Argentina,1,,,-34.4840067,-58.6609171,1,0.9,SI,NO,SI,SI,NO,SI,NO,"(011) 4512-9986",,,,,,,,,,,,,,"(011) 4512-9986",,,"Dra. Patricia Fernanda Galardo M.P.N° 444.959 Por Disposición N° 3125 Del 30-11-2011",,,,"(011) 4512-9986",,,,,,"Ofrece asesoramiento sobre interrupción legal del embarazo",,,,,,,,"(011) 4512-9986",,,,,,,,,,,,,NO,NO,NO,NO,NO,NO,,,
108382,"Centro de Salud Altamirano","Centro de Salud Público","Sebastián Echeverría",,,"Los Nogales",,"Coronel Brandsen",Brandsen,"Buenos Aires",Argentina,1,,,-35.1739889,-58.23643010000001,1,0.7,NO,SI,NO,NO,NO,NO,NO,,,,,,,,,,,,,,,,,,,,,,,,,,,,,,,,,,,,,,,,,,,,,,,,,NO,NO,NO,NO,NO,NO,,,
108392,"Centro de Salud Ara Gral. Belgrano","Centro de Salud Público","Valparaiso ",,,"San Martin Y Cangallo","Pablo Nogués","Pablo Nogués","Malvinas Argentinas","Buenos Aires",Argentina,1,,,-34.4785687,-58.7057233,1,0.5,NO,NO,SI,NO,NO,NO,NO,,,,,,,,,,,,,,,"(02320) 484893",,,,,,,,,,,,,,,,,,,,,,,,,,,,,,,,,,NO,NO,NO,NO,NO,NO,,,
108402,"Centro de Salud Aurora Peñalba","Centro de Salud Público","Rio Turbio Nº 35",,,,Escobar,Escobar,Escobar,"Buenos Aires",Argentina,1,,,-34.3611101,-58.7769169,1,0.9,NO,NO,SI,NO,NO,NO,NO,,,,,,,,,,,,,,,,,,"Dr. Cristian Andrés Fusco, M.P. N° 56.414",,,,,,,,,,,,,,,,,,,,,,,,,,,,,,,NO,NO,NO,NO,NO,NO,,,
108412,"Centro de Salud Azucena Villaflor","Centro de Salud Público","Av. Mitre",1340,,,Avellaneda,Avellaneda,Avellaneda,"Buenos Aires",Argentina,1,,,-34.66556610000001,-58.3590551,1,0.9,SI,NO,NO,NO,NO,NO,NO,,,"Lunes a Viernes 9 a 20","Silvia García",,,,,,,,,,,,,,,,,,,,,,,,,,,,,,,,,,,,,,,,,,,,,NO,NO,NO,NO,NO,NO,,,
108422,"Centro de Salud Baires","Centro de Salud Público","El Cano",960,,,"Don Torcuato Este","Don Torcuato",Tigre,"Buenos Aires",Argentina,1,,,-34.6036844,-58.3815591,1,0.5,NO,NO,SI,NO,NO,NO,NO,,,,,,,,,,,,,,,"(011) 4513-2532",,,"Dr. Guillermo César Valvarde, M.P. N° 49.985",,,,,,,,,,,,,,,,,,,,,,,,,,,,,,,NO,NO,NO,NO,NO,NO,,,
108432,"Centro de Salud Bajo Campodonico","Centro de Salud Público","Ruta  1001",,,"Camino Real Barrio Bajo Tala","Rio Tala","Rio Tala","San Pedro","Buenos Aires",Argentina,1,,,-33.7692611,-59.6394599,1,0.5,NO,NO,SI,NO,NO,NO,NO,,,,,,,,,,,,,,,,,,,,,,,,,,,,,,,,,,,,,,,,,,,,,,,,,NO,NO,NO,NO,NO,NO,,,
108442,"Centro de Salud Barrio 9 De Julio","Centro de Salud Público",77,4866,,,Necochea,Necochea,Necochea,"Buenos Aires",Argentina,1,,,-38.5539155,-58.75771030000001,1,0.9,NO,NO,SI,NO,NO,NO,NO,,,,,,,,,,,,,,,"(02262) 420124",,,"Dra. Valentina Marisa Tullio, M.P. N° 93.162",,,,,,,,,,,,,,,,,,,,,,,,,,,,,,,NO,NO,NO,NO,NO,NO,,,
108452,"Centro de Salud Barrio Del Este","Centro de Salud Público","Pres. José Evaristo Uriburu",1350,,,"Trenque Lauquen","Trenque Lauquen","Trenque Lauquen","Buenos Aires",Argentina,1,,,-35.9732789,-62.7325973,1,0.5,NO,NO,SI,NO,NO,NO,NO,,,,,,,,,,,,,,,"(02983) 424045",,,"Dr Reyes Pablo Avier Mp 113.252",,,,,,,,,,,,,,,,,,,,,,,,,,,,,,,NO,NO,NO,NO,NO,NO,,,
108482,"Centro de Salud Barrio Salas","Centro de Salud Público",Salas,,,Chutro,"Roberto De Vicenzo","Roberto De Vicenzo",Pilar,"Buenos Aires",Argentina,1,,,-34.6036844,-58.3815591,1,0.5,SI,NO,SI,NO,NO,NO,NO,"(0230) 154306812",,,,,,,,,,,,,,"(0230) 154306812",,,"Ana Valentinuz",,,,"(0230) 154306812",,,,,,"No esta confirmado que asesore o realice interrupción legal del embarazo",,,,,,,,"(0230) 154306812",,,,,,,,,,,,,NO,NO,NO,NO,NO,NO,,,
108512,"Centro de Salud Barrio Trocha","Centro de Salud Público","Sebastian Dray",,,"Agustin Magaldi Barrio Trocha",Salto,Salto,Salto,"Buenos Aires",Argentina,1,,,-34.295047,-60.24737870000001,1,0.5,NO,NO,SI,NO,NO,NO,NO,,,,,,,,,,,,,,,02474-425332,,,,,,,,,,,,,,,,,,,,,,,,,,,,,,,,,,NO,NO,NO,NO,NO,NO,,,
108522,"Centro de Salud Benavidez","Centro de Salud Público",Alvear,,,Marabotto,Benavidez,Benavidez,Tigre,"Buenos Aires",Argentina,1,,,-34.4151715,-58.6867547,1,0.5,SI,NO,SI,SI,NO,NO,NO,"(03327) 48-2904",,,,,,,,,,,,,,"(03327) 48-2904",,,"Odontólogo Luis Nacur, M.P. N° 42.316",,,,"(03327) 48-2904",,,,,,"Ofrece asesoramiento sobre interrupción legal del embarazo",,,,,,,,"(03327) 48-2904",,,,,,,,,,,,,NO,NO,NO,NO,NO,NO,,,
108532,"Centro de Salud Bertres","Centro de Salud Público",Azcuénaga,1745,,,"San Fernando","San Fernando","San Fernando","Buenos Aires",Argentina,1,,,-34.4583328,-58.576513,1,0.9,NO,SI,NO,NO,NO,NO,NO,,,,,,,,"(011) 4714-6214",,,"Responsable: Adriana Bravo",,,,,,,,,,,,,,,,,,,,,,,,,,,,,,,,,,,,,,NO,NO,NO,NO,NO,NO,,,
108542,"Centro de Salud Candido Castelo","Centro de Salud Público","Aristóbulo Del Valle",,,Bramante,"San Miguel","San Miguel","San Miguel","Buenos Aires",Argentina,1,,,-34.5633599,-58.7360928,1,0.7,SI,NO,SI,SI,NO,SI,NO,"(011) 44557326",,,,,,,,,,,,,,"(011) 44557326",,,,,,,"(011) 44557326",,,,,,"No esta confirmado que asesore o realice interrupción legal del embarazo",,,,,,,,"(011) 44557326",,,,,,,,,,,,,NO,NO,NO,NO,NO,NO,,,
108552,"Centro de Salud Carolina Ii","Centro de salud Público",Garín,2666,,"San Fernando","Florencio Varela","Florencio Varela","Florencio Varela","Buenos Aires",Argentina,-1,,,-34.7965806,-58.2760119,1,0.5,SI,NO,SI,SI,NO,SI,NO,,,,,,,,,,,,,,,"(02229) 45-3894",,,,,,,"(02229) 45-3894",,,,,,,,,,,,,,02229-453894,,,,,,,,,,,,,NO,NO,NO,NO,NO,NO,,,
108562,"Centro de Salud Chapadmalal","Centro de Salud Público","Ruta 11",549,,,Miramar,Miramar,"General Alvarado","Buenos Aires",Argentina,1,,,-38.2613065,-57.8404601,1,0.9,NO,NO,SI,NO,NO,NO,NO,,,,,,,,,,,,,,,,,,,,,,,,,,,,,,,,,,,,,,,,,,,,,,,,,NO,NO,NO,NO,NO,NO,,,
108572,"Centro de Salud Coronel Dorrego","Centro de Salud Público","Las Retamas",888,,,"Ingeniero Maschwitz","Ingeniero Maschwitz",Escobar,"Buenos Aires",Argentina,1,,,-34.3941707,-58.7551389,1,0.9,SI,NO,SI,SI,NO,SI,NO,"(03488) 446198",,,,,,,,,,,,,,"(03488) 446198",,,,,,,"(03488) 446198",,,,,,"No esta confirmado que asesore o realice interrupción legal del embarazo",,,,,,,,"(03488) 446198",,,,,,,,,,,,,NO,NO,NO,NO,NO,NO,,,
108582,"Centro de Salud Crisol","Centro de Salud Público","Martín Rodríguez",2600,,Tucumán,"San Fernando","San Fernando","San Fernando","Buenos Aires",Argentina,1,,,-34.4619932,-58.5509394,1,0.9,NO,SI,SI,NO,NO,NO,NO,,,,,,,,"(011) 4746-4126",,,"Responsable: Mariana Vila",,,,"(011) 4746-4126",,,,,,,,,,,,,,,,,,,,,,,,,,,,,,,,,,NO,NO,NO,NO,NO,NO,,,
108602,"Centro de Salud Doctor Gelpi","Centro de Salud Público",Miró,,,Batbeder,"Castelar Sur","Castelar Sur",Morón,"Buenos Aires",Argentina,-1,,,-34.6332859,-58.6357,1,0.5,SI,NO,NO,NO,NO,NO,NO,"(011) 4692-5547",,,"Región Sanitaria Vii - Ugc 5",,,,,,,,,,,,,,,,,,,,,,,,,,,,,,,,,,,,,,,,,,,,,NO,NO,NO,NO,NO,NO,,,
108622,"Centro de Salud Don Jose","Centro de Salud Público","El Indio",57,,,"Florencio Varela","Florencio Varela","Florencio Varela","Buenos Aires",Argentina,1,,,-34.7950894,-58.3119758,1,1,SI,NO,SI,SI,NO,SI,NO,"(011) 4213-1731",,,,,,,,,,,,,,"(011) 4213-1731",,,,,,,"(011) 4213-1731",,,,,,"No esta confirmado que asesore o realice interrupción legal del embarazo",,,,,,,,,,,,,,,,,,,,,NO,NO,NO,NO,NO,NO,,,
108632,"Centro de Salud Don Torcuato","Centro de Salud Público",España,1450,,,"Don Torcuato Este","Don Torcuato",Tigre,"Buenos Aires",Argentina,1,,,-34.6036844,-58.3815591,1,0.5,NO,NO,SI,NO,NO,NO,NO,,,,,,,,,,,,,,,"(011) 45132533",,,"Dra. Maria Aurelia Osorio Mp 56.686",,,,,,,,,,,,,,,,,,,,,,,,,,,,,,,NO,NO,NO,NO,NO,NO,,,
108682,"Centro de Salud Dr. Finochietto","Centro de Salud Público","Ruta Prov.  202",,,,Virreyes,Virreyes,"San Fernando","Buenos Aires",Argentina,1,,,-34.4719532,-58.59714770000001,1,0.7,NO,NO,SI,NO,NO,NO,NO,,,,,,,,,,,,,,,"(011) 47146492",,,,,,,,,,,,,,,,,,,,,,,,,,,,,,,,,,NO,NO,NO,NO,NO,NO,,,
108692,"Centro de Salud Dr. Gabriel Fanin Charlone","Centro de Salud Público","Dr. Fanin",,,Mordadi,"Coronel Charlone","Coronel Charlone","General Villegas","Buenos Aires",Argentina,1,,,-34.6743046,-63.36893959999999,1,0.5,NO,NO,SI,NO,NO,NO,NO,,,,,,,,,,,,,,,"(03388) 490078",,,,,,,,,,,,,,,,,,,,,,,,,,,,,,,,,,NO,NO,NO,NO,NO,NO,,,
108732,"Centro de Salud Dr. Luis Resio","Centro de Salud Público","Horacio Dupuy",,,"Churich  ",Garin,Garin,Escobar,"Buenos Aires",Argentina,1,,,-34.4224358,-58.73775479999999,1,0.5,SI,NO,SI,SI,NO,NO,NO,"(03488) 477862",,,,,,,,,,,,,,"(03488) 477862",,,,,,,"(03488) 477862",,,,,,"No esta confirmado que asesore o realice interrupción legal del embarazo",,,,,,,,,,,,,,,,,,,,,NO,NO,NO,NO,NO,NO,,,
108742,"Centro de Salud Dr. Ramón Carrillo","Centro de Salud Público","Manuela Pedraza",750,,,Hurlingham,Hurlingham,Hurlingham,"Buenos Aires",Argentina,1,,,-34.6194485,-58.6203302,1,0.9,NO,NO,SI,NO,NO,NO,NO,,,,,,,,,,,,,,,"(011) 4459-9022",,,"Dra. María Guadalupe Sartor, M.P. N° 53.557",,,,,,,,,,,,,,,,,,,,,,,,,,,,,,,NO,NO,NO,NO,NO,NO,,,
108752,"Centro de Salud Dr. Ramon Carrillo De Salto-barrio","Centro de Salud Público","Charras ",93,,"Lira y  Troncoso",Salto,Salto,Salto,"Buenos Aires",Argentina,1,,,-34.2995474,-60.2399909,1,0.5,NO,NO,SI,NO,NO,NO,NO,,,,,,,,,,,,,,,02474-422838,,,"Gladys Nolessi",,,,,,,,,,,,,,,,,,,,,,,,,,,,,,,NO,NO,NO,NO,NO,NO,,,
108762,"Centro de Salud Dr. Ramón Carrillo N° 3","Centro de Salud Público","Av. Central",,,"Calle 200","Ciudad Evita","Ciudad Evita","La Matanza","Buenos Aires",Argentina,1,,,-34.7183793,-58.5615323,1,0.7,NO,SI,NO,NO,NO,NO,NO,,,,,,,,(011)4695-3917,,,,,,,,,,,,,,,,,,,,,,,,,,,,,,,,,,,,,,,,,NO,NO,NO,NO,NO,NO,,,
108782,"Centro de Salud Dr. Springolo","Centro de Salud Público","General Galán",655,,,"El Palomar","El Palomar",Morón,"Buenos Aires",Argentina,-1,,,-34.686883,-58.5963436,1,89999,SI,NO,NO,NO,NO,NO,NO,"(011) 4751-8961/3791",,,"Región Sanitaria Vii - Ugc 3 - 3 Dispensers",,,,,,,,,,,,,,,,,,,,,,,,,,,,,,,,,,,,,,,,,,,,,NO,NO,NO,NO,NO,NO,,,
108832,"Centro de Salud Federico Rosito","Centro de Salud Público","Paraje San Tosquera",,,,"San Pedro","San Pedro","San Pedro","Buenos Aires",Argentina,1,,,-33.6757835,-59.66286640000001,1,0.5,NO,NO,SI,NO,NO,NO,NO,,,,,,,,,,,,,,,,,,,,,,,,,,,,,,,,,,,,,,,,,,,,,,,,,NO,NO,NO,NO,NO,NO,,,
108842,"Centro de Salud Fomento De Queuqen","Centro de Salud Público",519,2267,,,Quequen,Quequen,Necochea,"Buenos Aires",Argentina,1,,,-38.5603974,-58.7108752,1,0.9,NO,NO,SI,NO,NO,NO,NO,,,,,,,,,,,,,,,,,,"Dr. Norberto Masante, M.P. N° 91.371",,,,,,,,,,,,,,,,,,,,,,,,,,,,,,,NO,NO,NO,NO,NO,NO,,,
108872,"Centro de Salud Integral Sandra Cabrera","Centro de Salud Público",1,1723,,,"City Bell","City Bell","La Plata","Buenos Aires",Argentina,1,,,-34.8691775,-58.0558686,1,0.9,NO,SI,NO,SI,NO,NO,NO,,,,,,,,"(0221) 425-8115",,,,,,,,,,,,,,"(0221) 425-8115",,,,,,"Ofrece asesoramiento sobre interrupción legal del embarazo",,,,,,,,"(0221) 425-8115",,,,,,,,,,,,,NO,NO,NO,NO,NO,NO,,,
108902,"Centro de Salud Juan Carlos Selles","Centro de Salud Público","Pablo Marín",,,"Scalabrini Ortíz º",Garin,Garin,Escobar,"Buenos Aires",Argentina,1,,,-34.4224358,-58.73775479999999,1,0.5,NO,SI,SI,NO,NO,NO,NO,,,,,,,,"(02320) 49-3444",,"Martes de 8 a 11 hs",,,,,"(02320) 49-3444",,,,,,,,,,,,,,,,,,,,,,,,,,,,,,,,,,NO,NO,NO,NO,NO,NO,,,
108912,"Centro de Salud Juana Azurduy","Centro de Salud Público",Berlín,3870,,,"Castelar Sur","Castelar Sur",Morón,"Buenos Aires",Argentina,1,,,-34.6332859,-58.6357,1,0.5,SI,NO,SI,SI,NO,SI,NO,"(011) 4692-5399/5398",,"Lunes a Viernes de 8 a 16 Hs.",,,,,,,,,,,,"(011) 4692-5399/5398",,,,,,,"(011) 4692-5399/5398",,,,,,"ofrece asesoramiento sobre interrupción legal del embarazo",,,,,,,,"(011) 4692-5399/5398",,,,,,,,,,,,,NO,NO,NO,NO,NO,NO,,,
108922,"Centro de Salud La Casita","Centro de Salud Público","Serrano ",2733,,Salerno),"San Miguel","San Miguel","San Miguel","Buenos Aires",Argentina,1,,,-34.5304914,-58.7209307,1,0.5,NO,NO,SI,NO,NO,NO,NO,,,,,,,,,,,,,,,,,,,,,,,,,,,,,,,,,,,,,,,,,,,,,,,,,NO,NO,NO,NO,NO,NO,,,
108932,"Centro de Salud La Loma","Centro de Salud Público","Los Helechos",,,"Los Tulipanes","Barrio La Loma","Barrio La Loma",Luján,"Buenos Aires",Argentina,-1,,,-34.65697189999999,-58.3982609,,0.7,NO,NO,SI,NO,NO,NO,NO,,,,,,,,,,,,,,,"(011) 1554501921",,,,,,,,,,,,,,,,,,,,,,,,,,,,,,,,,,NO,NO,NO,NO,NO,NO,,,
108952,"Centro de Salud Las Canaletas","Centro de Salud Público","Juan Ismael Gimenez",1600,,,"San Pedro","San Pedro","San Pedro","Buenos Aires",Argentina,1,,,-33.6578547,-59.71224530000001,1,0.7,NO,NO,SI,NO,NO,NO,NO,,,,,,,,,,,,,,,"(03329) 423524",,,,,,,,,,,,,,,,,,,,,,,,,,,,,,,,,,NO,NO,NO,NO,NO,NO,,,
108962,"Centro de Salud Las Tunas Y A. Del Talar","Centro de Salud Público",Sacristi,,,Mosconi,"General Pacheco","General Pacheco",Tigre,"Buenos Aires",Argentina,1,,,-34.4529709,-58.64298660000001,1,0.5,SI,NO,SI,SI,NO,SI,NO,"(03327) 441044",,,,,,,,,,,,,,"(03327) 441044",,,"Dra. María Gabriela Festino, M.P. N° 444.673 Por Disposición N° 2935 Del 10-11-2011",,,,"(03327) 441044",,,,,,"Ofrece asesoramiento sobre interrupción legal del embarazo",,,,,,,,"(03327) 441044",,,,,,,,,,,,,NO,NO,NO,NO,NO,NO,,,
109012,"Centro de Salud Malvinas","Centro de salud Público","Los Quebrachos",,,"El Car","Florencio Varela","Florencio Varela","Florencio Varela","Buenos Aires",Argentina,-1,,,-34.7965806,-58.27601199999999,,0.5,SI,NO,NO,NO,NO,NO,NO,4268-2052,,,,,,,,,,,,,,,,,,,,,,,,,,,,,,,,,,,,,,,,,,,,,,,,NO,NO,NO,NO,NO,NO,,,
109032,"Centro de Salud Maria Auxiliadora William Morris","Centro de Salud Público","Santa María",2500,,,"Del Viso","Del Viso",Pilar,"Buenos Aires",Argentina,1,,,-34.4465119,-58.78575479999999,1,0.9,SI,NO,SI,NO,NO,NO,NO,"(02320) 472200",,,,,,,,,,,,,,"(02320) 472200",,,,,,,"(02320) 472200",,,,,,"No esta confirmado que asesore o realice interrupción legal del embarazo",,,,,,,,"(02320) 472200",,,,,,,,,,,,,NO,NO,NO,NO,NO,NO,,,
109042,"Centro de Salud María Isabel","Centro de Salud Público",Arenales,3220,,,"San Fernando","San Fernando","San Fernando","Buenos Aires",Argentina,1,,,-34.4561012,-58.5690992,1,0.9,NO,SI,SI,SI,NO,SI,NO,,,,,,,,"(011) 4746-1941",,,"Responsable: Marisa Barroso, Pablo Reyes.",,,,"(011) 4746-1941",,,,,,,,,,,,,,,,,,,,,,,,,,,,,,,,,,NO,NO,NO,NO,NO,NO,,,
109052,"Centro de Salud Mateo Sberg","Centro de Salud Público","Joaquín V. Gonzalez",1230,,,"San Pedro","San Pedro","San Pedro","Buenos Aires",Argentina,1,,,-33.6865964,-59.6590769,1,0.9,SI,NO,SI,NO,NO,NO,NO,"(03329) 424070",,,,,,,,,,,,,,"(03329) 424070",,,,,,,,,,,,,,,,,,,,,,,,,,,,,,,,,,NO,NO,NO,NO,NO,NO,,,
109062,"Centro de Salud Mental Meditar","Centro de Salud Público","C. Zibechi",74,"Piso 1°",,"Benito Juarez","Benito Juarez","Benito Juárez","Buenos Aires",Argentina,1,,,-37.6743158,-59.8048962,1,0.5,NO,NO,SI,NO,NO,NO,NO,,,,,,,,,,,,,,,,,,"Dra. Miriam Hebe Guevara, M.P. N° 18.337",,,,,,,,,,,,,,,,,,,,,,,,,,,,,,,NO,NO,NO,NO,NO,NO,,,
109072,"Centro de Salud Municipal N° 1","Centro de Salud Público",Yapeyú,37,,,"Adolfo Gonzales Chaves","Adolfo Gonzales Chaves","Adolfo Gonzales Chaves","Buenos Aires",Argentina,1,,,-38.0287346,-60.1124617,1,0.7,NO,NO,SI,NO,NO,NO,NO,,,,,,,,,,,,,,,,,,"Dr. Silvio Alejandro Gabriel Tarducci, M.P. N° 111.825",,,,,,,,,,,,,,,,,,,,,,,,,,,,,,,NO,NO,NO,NO,NO,NO,,,
109082,"Centro de Salud N° 1 ","Centro de Salud Público",144,60,,,"La Plata","La Plata","La Plata","Buenos Aires",Argentina,1,,,-34.9350944,-58.00806830000001,1,0.9,SI,NO,SI,NO,NO,NO,NO,"(0221) 450-9717",,,,,,,,,,,,,,"(0221) 450-9717",,,,,,,,,,,,,,,,,,,,,,,,,,,,,,,,,,NO,NO,NO,NO,NO,NO,,,
109092,"Centro de Salud N° 1 De Mar Del Plata","Centro de Salud Público","Av. Colon",3294,,,"Mar Del Plata","Mar Del Plata","General Pueyrredón","Buenos Aires",Argentina,1,,,-37.999897,-57.5572612,1,0.9,NO,NO,SI,NO,NO,NO,NO,,,,,,,,,,,,,,,"(0223) 4932309",,,,,,,,,,,,,,,,,,,,,,,,,,,,,,,,,,NO,NO,NO,NO,NO,NO,,,
109132,"Centro de Salud N° 11","Centro de Salud Público","9 De Julio",,,Alem,"La Plata","La Plata","La Plata","Buenos Aires",Argentina,1,,,-34.9204948,-57.95356570000001,1,0.5,SI,NO,SI,NO,NO,NO,NO,"(0221) 474-1804",,,,,,,,,,,,,,"(0221) 474-1804",,,,,,,,,,,,,,,,,,,,,,,,,,,,,,,,,,NO,NO,NO,NO,NO,NO,,,
109152,"Centro de Salud N° 13","Centro de Salud Público",41,770,,,Gonnet,Gonnet,"La Plata","Buenos Aires",Argentina,1,,,-34.9114998,-57.9623001,1,0.9,SI,SI,NO,NO,NO,NO,NO,"(0221) 427-2867",,,,,,,,,,,,,,,,,,,,,,,,,,,,,,,,,,,,,,,,,,,,,,,,NO,NO,NO,NO,NO,NO,,,
109172,"Centro de Salud N° 16 ","Centro de Salud Público",66,174,,,"La Plata","La Plata","La Plata","Buenos Aires",Argentina,1,,,-34.9131482,-57.9195566,1,0.9,SI,SI,SI,NO,NO,NO,NO,"(0221) 450-4767",,,,,,,,,,,,,,"(0221) 450-4767",,,,,,,,,,,,,,,,,,,,,,,,,,,,,,,,,,NO,NO,NO,NO,NO,NO,,,
109182,"Centro de Salud N° 17 ","Centro de Salud Público","Rosa Laura",26,,,"La Plata","La Plata","La Plata","Buenos Aires",Argentina,1,,,-34.9204948,-57.95356570000001,1,0.5,SI,NO,SI,NO,NO,NO,NO,"(0221) 473-2299",,,,,,,,,,,,,,"(0221) 473-2299",,,,,,,,,,,,,,,,,,,,,,,,,,,,,,,,,,NO,NO,NO,NO,NO,NO,,,
109192,"Centro de Salud N° 19 ","Centro de Salud Público",4,,,611,"Villa Elvira","Villa Elvira","La Plata","Buenos Aires",Argentina,1,,,-34.9039971,-57.92249849999999,1,0.9,SI,SI,SI,NO,NO,NO,NO,"(0221) 486-1836",,,,,,,,,,,,,,"(0221) 486-1836",,,,,,,,,,,,,,,,,,,,,,,,,,,,,,,,,,NO,NO,NO,NO,NO,NO,,,
109212,"Centro de Salud N° 2 ","Centro de Salud Público",66,143,,,"La Plata","La Plata","La Plata","Buenos Aires",Argentina,1,,,-34.9340682,-58.00707430000001,1,0.9,SI,SI,SI,NO,NO,NO,NO,"(0221) 450-9599",,,,,,,,,,,,,,"(0221) 450-9599",,,,,,,,,,,,,,,,,,,,,,,,,,,,,,,,,,NO,NO,NO,NO,NO,NO,,,
109222,"Centro de Salud N° 22 ","Centro de Salud Público","Estación Ignacio Correa",,,,"La Plata","La Plata","La Plata","Buenos Aires",Argentina,1,,,-34.9204948,-57.95356570000001,1,0.5,SI,NO,SI,NO,NO,NO,NO,"(0221) 491-2084",,,,,,,,,,,,,,"(0221) 491-2084",,,,,,,,,,,,,,,,,,,,,,,,,,,,,,,,,,NO,NO,NO,NO,NO,NO,,,
109242,"Centro de Salud N° 22 Santa Rita De Berazategui","Centro de Salud Público",359,,,"303 y 304",Ranelagh,Ranelagh,Berazategui,"Buenos Aires",Argentina,1,,,-34.7941397,-58.21311619999999,1,0.9,NO,NO,SI,NO,NO,NO,NO,,,,,,,,,,,,,,,,,,,,,,,,,,,,,,,,,,,,,,,,,,,,,,,,,NO,NO,NO,NO,NO,NO,,,
109252,"Centro de Salud N° 23  ","Centro de Salud Público","Ruta  12",,,,"Barrio Siderca ",Campana,Campana,"Buenos Aires",Argentina,1,,,-34.1633346,-58.95926429999999,1,0.5,NO,NO,SI,NO,NO,NO,NO,,,,,,,,,,,,,,,,,,,,,,,,,,,,,,,,,,,,,,,,,,,,,,,,,NO,NO,NO,NO,NO,NO,,,
109262,"Centro de Salud N° 26 Virreyes De San Fernando","Centro de Salud Público",Maipú,2354,,,Virreyes,Virreyes,"San Fernando","Buenos Aires",Argentina,1,,,-34.451488,-58.56237699999999,1,0.9,SI,SI,SI,SI,NO,SI,NO,"(011) 47464132",,,,,,,"(011) 47464132",,,,,,,"(011) 47464132",,,,,,,"(011) 47464132",,,,,,"No esta confirmado que asesore o realice interrupción legal del embarazo",,,,,,,,"(011) 47464132",,,,,,,,,,,,,NO,NO,NO,NO,NO,NO,,,
109272,"Centro de Salud N° 27 De San Fernando","Centro de Salud Público","25 De Mayo",2290,,,"San Fernando","San Fernando","San Fernando","Buenos Aires",Argentina,1,,,-34.446511,-58.56703289999999,1,0.9,SI,SI,SI,SI,NO,SI,NO,"(011) 47443138",,,,,,,"(011) 47443138",,,,,,,"(011) 47443138",,,,,,,"(011) 47443138",,,,,,"Ofrece asesoramiento sobre interrupción legal del embarazo",,,,,,,,"(011) 47443138",,,,,,,,,,,,,NO,NO,NO,NO,NO,NO,,,
109282,"Centro de Salud N° 28 ","Centro de Salud Público",13,494,,,"Manuel B. Gonnet","Manuel B. Gonnet","La Plata","Buenos Aires",Argentina,1,,,-34.8889618,-58.021431,1,0.5,SI,NO,SI,NO,NO,NO,NO,"(0221) 4711068",,,,,,,,,,,,,,"(0221) 4711068",,,,,,,,,,,,,,,,,,,,,,,,,,,,,,,,,,NO,NO,NO,NO,NO,NO,,,
109292,"Centro de Salud N° 32 ","Centro de Salud Público",510,31,,,"La Plata","La Plata","La Plata","Buenos Aires",Argentina,1,,,-34.8950389,-58.0102604,1,0.9,SI,NO,SI,NO,NO,NO,NO,"(0221) 471-0037",,,,,,,,,,,,,,"(0221) 471-0037",,,,,,,,,,,,,,,,,,,,,,,,,,,,,,,,,,NO,NO,NO,NO,NO,NO,,,
109302,"Centro de Salud N° 33 ","Centro de Salud Público",142,,,520,"La Plata","La Plata","La Plata","Buenos Aires",Argentina,1,,,-34.9424599,-57.99351069999999,1,0.9,SI,NO,SI,NO,NO,NO,NO,"(0221) 4700625",,,,,,,,,,,,,,"(0221) 4700625",,,,,,,,,,,,,,,,,,,,,,,,,,,,,,,,,,NO,NO,NO,NO,NO,NO,,,
109322,"Centro de Salud N° 40 ","Centro de Salud Público",59,8,,,"La Plata","La Plata","La Plata","Buenos Aires",Argentina,1,,,-34.9025579,-57.96860710000001,1,0.9,SI,NO,SI,NO,NO,NO,NO,"(0221) 427-3164",,,,,,,,,,,,,,"(0221) 427-3164",,,,,,,,,,,,,,,,,,,,,,,,,,,,,,,,,,NO,NO,NO,NO,NO,NO,,,
109332,"Centro de Salud N° 44","Centro de Salud Público",159,54,,,"Los Hornos","Los Hornos","La Plata","Buenos Aires",Argentina,1,,,-34.9326791,-57.964572,1,0.7,SI,NO,SI,SI,NO,NO,NO,"(0221) 456-4808",,,,,,,,,,,,,,"(0221) 456-4808",,,,,,,"(0221) 456-4808",,,,,,"Ofrece asesoramiento sobre interrupción legal del embarazo",,,,,,,,"(0221) 456-4808",,,,,,,,,,,,,NO,NO,NO,NO,NO,NO,,,
109362,"Centro de Salud N° 6 ","Centro de Salud Público",122,81,,,"La Plata","La Plata","La Plata","Buenos Aires",Argentina,1,,,-34.9295774,-57.90876540000001,1,0.9,SI,NO,SI,NO,NO,NO,NO,"(0221) 4520077",,,,,,,,,,,,,,"(0221) 4520077",,,,,,,,,,,,,,,,,,,,,,,,,,,,,,,,,,NO,NO,NO,NO,NO,NO,,,
109392,"Centro de Salud N° 9 ","Centro de Salud Público",3,528,,,"La Plata","La Plata","La Plata","Buenos Aires",Argentina,1,,,-34.9056328,-57.9528253,1,1,SI,NO,SI,NO,NO,NO,NO,"(0221) 4249595",,,,,,,,,,,,,,"(0221) 4249595",,,,,,,,,,,,,,,,,,,,,,,,,,,,,,,,,,NO,NO,NO,NO,NO,NO,,,
109412,"Centro de Salud Nº 10","Centro de Salud Público",208,,,516,Abasto,Abasto,"La Plata","Buenos Aires",Argentina,1,,,-34.9759114,-58.1016722,1,0.7,SI,SI,SI,NO,NO,NO,NO,"(0221) 491-3845",,,,,,,,,,,,,,"(0221) 491-3845",,,,,,,,,,,,,,,,,,,,,,,,,,,,,,,,,,NO,NO,NO,NO,NO,NO,,,
109422,"Centro de Salud Nº 11","Centro de Salud Público",143,,,"414 bis","Arturo Seguí","Arturo Seguí","La Plata","Buenos Aires",Argentina,-1,,,-34.885929327939,-58.124453324329,,0.7,SI,SI,NO,NO,NO,NO,NO,"(0221) 474-1804",,,,,,,,,,,,,,,,,,,,,,,,,,,,,,,,,,,,,,,,,,,,,,,,NO,NO,NO,NO,NO,NO,,,
109432,"Centro de Salud Nº 12","Centro de Salud Público",138,,,481,Gorina,Gorina,"La Plata","Buenos Aires",Argentina,1,,,-34.903338492983,-58.048550953828,1,0.5,SI,SI,SI,NO,NO,NO,NO,"(0221) 471-5078",,,,,,,,,,,,,,"(0221) 471-5078",,,,,,,,,,,,,,,,,,,,,,,,,,,,,,,,,,NO,NO,NO,NO,NO,NO,,,
109442,"Centro de Salud Nº 12 V. Piaggio","Centro de Salud Público",Parravicini,740,,,"Villa Piaggio","Villa Piaggio","General San Martín","Buenos Aires",Argentina,-1,,,-34.6036844,-58.3815591,,0.5,NO,SI,NO,NO,NO,NO,NO,,,,,,,,"(011) 4830 0710",,,,,,,"(011) 4830 0710",,,,,,,,,,,,,,,,,,,,,,,,,,,,,,,,,,NO,NO,NO,NO,NO,NO,,,
109452,"Centro de Salud Nº 13","Centro de Salud Público",Azcuénaga,4061,,,"Villa Lynch","Villa Lynch","General San Martín","Buenos Aires",Argentina,-1,,,-34.5927921,-58.5249391,,0.9,NO,SI,NO,NO,NO,NO,NO,,,,,,,,"(011) 4830-0709",,"Consejería: Lunes de 9 a 11 hs. y Viernes 9 a 11 hs.",,,,,"(011) 4830-0709",,,,,,,,,,,,,,,,,,,,,,,,,,,,,,,,,,NO,NO,NO,NO,NO,NO,,,
109462,"Centro de Salud Nº 14","Centro de Salud Público",16,,,529,Tolosa,Tolosa,"La Plata","Buenos Aires",Argentina,1,,,-34.8992653,-57.9830589,1,0.5,SI,SI,SI,NO,NO,NO,NO,"(0221) 425-9122",,,,,,,,,,,,,,"(0221) 425-9122",,,,,,,,,,,,,,,,,,,,,,,,,,,,,,,,,,NO,NO,NO,NO,NO,NO,,,
109472,"Centro de Salud Nº 14 Barrio Uta","Centro de Salud Público","Bartolomé Mitre (calle 39)",1253,,,"Loma Hermosa","Loma Hermosa","General San Martín","Buenos Aires",Argentina,-1,,,-34.5538195,-58.56379959999999,,0.7,NO,SI,NO,NO,NO,NO,NO,,,,,,,,"(011) 4513 5120 / 4513 5124",,,,,,,"(011) 4513 5120 / 4513 5124",,,,,,,,,,,,,,,,,,,,,,,,,,,,,,,,,,NO,NO,NO,NO,NO,NO,,,
109482,"Centro de Salud Nº 15","Centro de Salud Público",520,,,118,Tolosa,Tolosa,"La Plata","Buenos Aires",Argentina,1,,,-34.8794769,-57.9706407,1,0.7,SI,SI,SI,SI,NO,NO,NO,"(0221) 471-4785",,,,,,,,,,,,,,"(0221) 471-4785",,,,,,,"(0221) 471-4785",,,,,,"Ofrece asesoramiento sobre interrupción legal del embarazo",,,,,,,,"(0221) 471-4785",,,,,,,,,,,,,NO,NO,NO,NO,NO,NO,,,
109492,"Centro de Salud Nº 15","Centro de Salud Público",Iberá,7456,,,"Villa Lanzone","Villa Lanzone","General San Martín","Buenos Aires",Argentina,-1,,,-34.6036844,-58.3815591,,0.5,NO,SI,NO,NO,NO,NO,NO,,,,,,,,"(011) 4513-5121",,"Consejería: Martes y Jueves de 11 a 12 hs.",,,,,"(011) 4513-5121",,,,,,,,,,,,,,,,,,,,,,,,,,,,,,,,,,NO,NO,NO,NO,NO,NO,,,
109502,"Centro de Salud Nº 16","Centro de Salud Público","Pasaje A",,,"Calle 66","Villa Zagala","Villa Zagala","General San Martín","Buenos Aires",Argentina,-1,,,-34.6036844,-58.3815591,,0.5,NO,SI,NO,NO,NO,NO,NO,,,,,,,,"(011) 4830-0690",,"Consejería: Miércoles 10 a 12 hs.",,,,,"(011) 4830-0690",,,,,,,,,,,,,,,,,,,,,,,,,,,,,,,,,,NO,NO,NO,NO,NO,NO,,,
109512,"Centro de Salud Nº 18","Centro de Salud Público",45,,,"187 bis",Olmos,Olmos,"La Plata","Buenos Aires",Argentina,1,,,-34.9873253,-58.0395519,1,0.5,SI,SI,NO,NO,NO,NO,NO,"(0221) 496-1102",,,,,,,,,,,,,,,,,,,,,,,,,,,,,,,,,,,,,,,,,,,,,,,,NO,NO,NO,NO,NO,NO,,,
109522,"Centro de Salud Nº 19","Centro de Salud Público","La Crujía",5643,,,"Villa Libertad","Villa Libertad","General San Martín","Buenos Aires",Argentina,-1,,,-34.7003212,-58.6834717,,0.5,NO,SI,NO,NO,NO,NO,NO,,,,,,,,"(011) 4830-0310",,"Consejería Miércoles 9.30 a 13 hs.",,,,,"(011) 4830-0310",,,,,,,,,,,,,,,,,,,,,,,,,,,,,,,,,,NO,NO,NO,NO,NO,NO,,,
109532,"Centro de Salud Nº 20","Centro de Salud Público",139,,,33,Romero,Romero,"La Plata","Buenos Aires",Argentina,1,,,-34.931723268059,-58.001089997484,1,0.7,SI,SI,SI,NO,NO,NO,NO,"(0221) 470-0029",,,,,,,,,,,,,,"(0221) 470-0029",,,,,,,,,,,,,,,,,,,,,,,,,,,,,,,,,,NO,NO,NO,NO,NO,NO,,,
109542,"Centro de Salud Nº 21","Centro de Salud Público",131,,,639,"San Lorenzo","San Lorenzo","La Plata","Buenos Aires",Argentina,1,,,-34.9527523,-57.8431275,1,0.7,SI,SI,SI,NO,NO,NO,NO,"(0221) 491-0711",,,,,,,,,,,,,,"(0221) 491-0711",,,,,,,,,,,,,,,,,,,,,,,,,,,,,,,,,,NO,NO,NO,NO,NO,NO,,,
109552,"Centro de Salud Nº 22 (estación Ignacio Correa)","Centro de Salud Público",29,,,696,"La Plata","La Plata","La Plata","Buenos Aires",Argentina,-1,,,-34.9204948,-57.95356570000001,,0.5,SI,SI,NO,NO,NO,NO,NO,,,,,,,,,,,,,,,,,,,,,,,,,,,,,,,,,,,,,,,,,,,,,,,,,NO,NO,NO,NO,NO,NO,,,
109562,"Centro de Salud Nº 23","Centro de Salud Público",53,,,228,Etcheverry,Etcheverry,"La Plata","Buenos Aires",Argentina,1,,,-35.0275135,-58.0737978,1,0.5,SI,SI,SI,NO,NO,NO,NO,"(0221) 496-1393",,,,,,,,,,,,,,"(0221) 496-1393",,,,,,,,,,,,,,,,,,,,,,,,,,,,,,,,,,NO,NO,NO,NO,NO,NO,,,
109572,"Centro de Salud Nº 24","Centro de Salud Público","Ruta 2","Km 44,5",,,"Barrio El Peligro","La Plata","La Plata","Buenos Aires",Argentina,1,,,-35.0634746,-58.0910061,1,0.5,SI,SI,SI,NO,NO,NO,NO,"(02229) 49 -1950",,,,,,,,,,,,,,"(02229) 49 -1950",,,,,,,,,,,,,,,,,,,,,,,,,,,,,,,,,,NO,NO,NO,NO,NO,NO,,,
109582,"Centro de Salud Nº 25","Centro de Salud Público",514,,,12,Ringuelet,Ringuelet,"La Plata","Buenos Aires",Argentina,1,,,-34.9004013,-58.0057048,1,0.7,SI,SI,SI,NO,NO,NO,NO,"(0221) 471-2160 ",,,,,,,,,,,,,,"(0221) 471-2160 ",,,,,,,,,,,,,,,,,,,,,,,,,,,,,,,,,,NO,NO,NO,NO,NO,NO,,,
109592,"Centro de Salud Nº 26","Centro de Salud Público",122,,,605,"Villa Elvira","Villa Elvira","La Plata","Buenos Aires",Argentina,1,,,-34.9385878,-57.8848467,1,0.7,SI,SI,SI,NO,NO,NO,NO,"(0221) 486-4112",,,,,,,,,,,,,,"(0221) 486-4112",,,,,,,,,,,,,,,,,,,,,,,,,,,,,,,,,,NO,NO,NO,NO,NO,NO,,,
109602,"Centro de Salud Nº 27","Centro de Salud Público",526,,,24,Tolosa,Tolosa,"La Plata","Buenos Aires",Argentina,1,,,-34.9132666,-57.9953478,1,0.7,SI,SI,SI,NO,NO,NO,NO,"(0221) 470-6382",,,,,,,,,,,,,,"(0221) 470-6382",,,,,,,,,,,,,,,,,,,,,,,,,,,,,,,,,,NO,NO,NO,NO,NO,NO,,,
109612,"Centro de Salud Nº 28","Centro de Salud Público",10,,,491,Gonnet,Gonnet,"La Plata","Buenos Aires",Argentina,1,,,-34.8973218,-57.9800708,1,0.7,SI,SI,NO,NO,NO,NO,NO,"(0221) 471-1068",,,,,,,,,,,,,,,,,,,,,,,,,,,,,,,,,,,,,,,,,,,,,,,,NO,NO,NO,NO,NO,NO,,,
109622,"Centro de Salud Nº 29 (República De Los Niños)","Centro de Salud Público","Camino General Belgrano",,,501,Gonnet,Gonnet,"La Plata","Buenos Aires",Argentina,1,,,-34.8930282,-58.0050397,1,0.7,SI,SI,SI,NO,NO,NO,NO,"(0221) 471-6942",,,,,,,,,,,,,,"(0221) 471-6942",,,,,,,,,,,,,,,,,,,,,,,,,,,,,,,,,,NO,NO,NO,NO,NO,NO,,,
109632,"Centro de Salud Nº 3","Centro de Salud Público",45,,,146,"San Carlos","San Carlos","La Plata","Buenos Aires",Argentina,1,,,-34.931057,-58.00255969999999,1,0.5,SI,SI,SI,NO,NO,NO,NO,"(0221) 470-6675",,,,,,,,,,,,,,"(0221) 470-6675",,,,,,,,,,,,,,,,,,,,,,,,,,,,,,,,,,NO,NO,NO,NO,NO,NO,,,
109642,"Centro de Salud Nº 3 Barrio Lindo","Centro de Salud Público",Portugal,,,Yatay,"Malvinas Argentinas","Malvinas Argentinas","Malvinas Argentinas","Buenos Aires",Argentina,1,,,-34.50771,-58.6956,1,0.7,SI,NO,NO,NO,NO,NO,NO,"(011) 4296-5839",,"Lunes a Viernes de 8 a 18","Sala De Espera",,,,,,,,,,,,,,,,,,,,,,,,,,,,,,,,,,,,,,,,,,,,,NO,NO,NO,NO,NO,NO,,,
109652,"Centro de Salud Nº 3 V. Concepción","Centro de Salud Público",Independencia,876,,,"Villa Concepción","Villa Concepcion","General San Martín","Buenos Aires",Argentina,-1,,,-27.3502805,-65.5904901,,0.7,NO,SI,NO,NO,NO,NO,NO,,,,,,,,"(011) 4830-0711 / 0723",,"Consejería: Martes 13 a 15 hs.",,,,,"(011) 4830-0711 / 0723",,,,,,,,,,,,,,,,,,,,,,,,,,,,,,,,,,NO,NO,NO,NO,NO,NO,,,
109662,"Centro de Salud Nº 31","Centro de Salud Público",186,,,492,Romero,Romero,"La Plata","Buenos Aires",Argentina,1,,,-34.9444158,-58.0948945,1,0.7,SI,SI,SI,NO,NO,NO,NO,"(0221) 491-4321",,,,,,,,,,,,,,"(0221) 491-4321",,,,,,,,,,,,,,,,,,,,,,,,,,,,,,,,,,NO,NO,NO,NO,NO,NO,,,
109672,"Centro de Salud Nº 31","Centro de Salud Público",Garibaldi,2727,,,"San Fernando","San Fernando","San Fernando","Buenos Aires",Argentina,1,,,-34.4575194,-58.5601401,1,0.9,NO,SI,NO,NO,NO,NO,NO,,,,,,,,"(011) 4746-3921",,,"Responsable: Paula Ponte, Olga Abriola",,,,,,,,,,,,,,,,,,,,,,,,,,,,,,,,,,,,,,NO,NO,NO,NO,NO,NO,,,
109682,"Centro de Salud Nº 32","Centro de Salud Público",131,,,510,Hernández,Hernández,"La Plata","Buenos Aires",Argentina,-1,,,-34.9047939,-58.0203394,,0.5,SI,SI,NO,NO,NO,NO,NO,"(0221) 471-0037",,,,,,,,,,,,,,,,,,,,,,,,,,,,,,,,,,,,,,,,,,,,,,,,NO,NO,NO,NO,NO,NO,,,
109692,"Centro de Salud Nº 33","Centro de Salud Público",143,,,520,Romero,Romero,"La Plata","Buenos Aires",Argentina,-1,,,-34.9245407,-58.0286511,,0.7,SI,SI,NO,NO,NO,NO,NO,"(0221) 470-0625",,,,,,,,,,,,,,,,,,,,,,,,,,,,,,,,,,,,,,,,,,,,,,,,NO,NO,NO,NO,NO,NO,,,
109702,"Centro de Salud Nº 34","Centro de Salud Público",156,,,528,,"La Plata","La Plata","Buenos Aires",Argentina,1,,,-34.9204948,-57.95356570000001,1,0.5,SI,SI,SI,NO,NO,NO,NO,"(0221) 470-6925",,,,,,,,,,,,,,"(0221) 470-6925",,,,,,,,,,,,,,,,,,,,,,,,,,,,,,,,,,NO,NO,NO,NO,NO,NO,,,
109712,"Centro de Salud Nº 35","Centro de Salud Público",99,,,121,"Villa Elvira","Villa Elvira","La Plata","Buenos Aires",Argentina,1,,,-34.9762268,-57.86625669999999,1,0.5,SI,SI,SI,NO,NO,NO,NO,"(0221) 486-5374",,,,,,,,,,,,,,"(0221) 486-5374",,,,,,,,,,,,,,,,,,,,,,,,,,,,,,,,,,NO,NO,NO,NO,NO,NO,,,
109722,"Centro de Salud Nº 36","Centro de Salud Público",412,,,29,"Villa Elisa","Villa Elisa","La Plata","Buenos Aires",Argentina,1,,,-34.8692219,-58.111122,1,0.7,SI,SI,NO,NO,NO,NO,NO,"(0221) 474-0101",,,,,,,,,,,,,,,,,,,,,,,,,,,,,,,,,,,,,,,,,,,,,,,,NO,NO,NO,NO,NO,NO,,,
109732,"Centro de Salud Nº 37","Centro de Salud Público",137,,,79,"Los Hornos","Los Hornos","La Plata","Buenos Aires",Argentina,1,,,-34.9561541,-57.9636891,1,0.7,SI,SI,SI,NO,NO,NO,NO,"(0221) 450-7199",,,,,,,,,,,,,,"(0221) 450-7199",,,,,,,,,,,,,,,,,,,,,,,,,,,,,,,,,,NO,NO,NO,NO,NO,NO,,,
109742,"Centro de Salud Nº 38","Centro de Salud Público",7,,,477,"City Bell","City Bell","La Plata","Buenos Aires",Argentina,1,,,-34.8624338,-58.0354477,1,0.5,SI,SI,SI,NO,NO,NO,NO,"(0221) 480-3821",,,,,,,,,,,,,,"(0221) 480-3821",,,,,,,,,,,,,,,,,,,,,,,,,,,,,,,,,,NO,NO,NO,NO,NO,NO,,,
109752,"Centro de Salud Nº 39","Centro de Salud Público",412,,,"116 y 117","Villa Elisa","Villa Elisa","La Plata","Buenos Aires",Argentina,1,,,-34.8631476,-58.1018127,1,0.7,SI,SI,NO,NO,NO,NO,NO,"(0221) 487-1239",,,,,,,,,,,,,,,,,,,,,,,,,,,,,,,,,,,,,,,,,,,,,,,,NO,NO,NO,NO,NO,NO,,,
109762,"Centro de Salud Nº 4","Centro de Salud Público","Camino Centenario",,,Arana,"Villa Elisa","Villa Elisa","La Plata","Buenos Aires",Argentina,1,,,-34.8583045,-58.07038219999999,1,0.7,SI,SI,SI,NO,NO,NO,NO,"(0221) 487-0267",,,,,,,,,,,,,,"(0221) 487-0267",,,,,,,,,,,,,,,,,,,,,,,,,,,,,,,,,,NO,NO,NO,NO,NO,NO,,,
109772,"Centro de Salud Nº 41","Centro de Salud Público",84,,,131,"San Lorenzo","San Lorenzo","La Plata","Buenos Aires",Argentina,1,,,-34.9628076,-57.9422232,1,0.7,SI,SI,SI,NO,NO,NO,NO,"(0221) 453-1423",,,,,,,,,,,,,,"(0221) 453-1423",,,,,,,,,,,,,,,,,,,,,,,,,,,,,,,,,,NO,NO,NO,NO,NO,NO,,,
109782,"Centro de Salud Nº 42","Centro de Salud Público",149,,,35,"San Carlos","San Carlos","La Plata","Buenos Aires",Argentina,1,,,-34.930101,-58.0262085,1,0.7,SI,SI,SI,NO,NO,NO,NO,"(0221) 479-8399",,,,,,,,,,,,,,"(0221) 479-8399",,,,,,,,,,,,,,,,,,,,,,,,,,,,,,,,,,NO,NO,NO,NO,NO,NO,,,
109792,"Centro de Salud Nº 43","Centro de Salud Público",8,,,632,"Villa Elvira","Villa Elvira","La Plata","Buenos Aires",Argentina,1,,,-34.9762268,-57.86625669999999,1,0.5,SI,SI,NO,NO,NO,NO,NO,"(0221) 491-0689",,,,,,,,,,,,,,,,,,,,,,,,,,,,,,,,,,,,,,,,,,,,,,,,NO,NO,NO,NO,NO,NO,,,
109812,"Centro de Salud Nº 46","Centro de Salud Público",16,,,608,"Bº Altos De San Lorenzo","La Plata","La Plata","Buenos Aires",Argentina,1,,,-34.9192859,-57.9642948,1,0.9,SI,NO,SI,NO,NO,NO,NO,"(0221) 486-4858",,,,,,,,,,,,,,"(0221) 486-4858",,,,,,,,,,,,,,,,,,,,,,,,,,,,,,,,,,NO,NO,NO,NO,NO,NO,,,
109822,"Centro de Salud Nº 5","Centro de Salud Público",12,,,19,"City Bell","City Bell","La Plata","Buenos Aires",Argentina,1,,,-34.8799858,-58.0600243,1,0.5,SI,SI,SI,NO,NO,NO,NO,"(0221) 480-0263",,,,,,,"(0221) 480-0263",,,,,,,"(0221) 480-0263",,,,,,,,,,,,,,,,,,,,,,,,,,,,,,,,,,NO,NO,NO,NO,NO,NO,,,
109832,"Centro de Salud Nº 5 Dr. Ramón Carrillo","Centro de Salud Público",Ocampo,"Ruta 8, Km. 18",,Maipú,"Villa Zapiola","Villa Zapiola","General San Martín","Buenos Aires",Argentina,-1,,,-35.04999919999999,-59.04999919999999,,0.5,NO,SI,NO,NO,NO,NO,NO,,,,,,,,"(011) 4513-5126",,,,,,,"(011) 4513-5126",,,,,,,,,,,,,,,,,,,,,,,,,,,,,,,,,,NO,NO,NO,NO,NO,NO,,,
109862,"Centro de Salud Nº 7","Centro de Salud Público",7,,,82,"Villa Elvira","Villa Elvira","La Plata","Buenos Aires",Argentina,1,,,-34.93893892174,-57.917804209509,1,0.5,SI,SI,SI,NO,NO,NO,NO,"(0221) 453-2585",,,,,,,"(0221) 453-2585",,,,,,,"(0221) 453-2585",,,,,,,,,,,,,,,,,,,,,,,,,,,,,,,,,,NO,NO,NO,NO,NO,NO,,,
109872,"Centro de Salud Nº 8","Centro de Salud Público",20,,,85,"San Lorenzo","San Lorenzo","La Plata","Buenos Aires",Argentina,1,,,-34.953215343552,-57.927702559772,1,0.7,SI,SI,SI,NO,NO,NO,NO,"(0221) 451-5845",,,,,,,"(0221) 451-5845",,,,,,,"(0221) 451-5845",,,,,,,,,,,,,,,,,,,,,,,,,,,,,,,,,,NO,NO,NO,NO,NO,NO,,,
109882,"Centro de Salud Nº 8 El Encuentro","Centro de Salud Público",Ituzaingó,,,Serrano,"Malvinas Argentinas","Malvinas Argentinas","Malvinas Argentinas","Buenos Aires",Argentina,1,,,-34.50771,-58.6956,1,0.7,SI,NO,NO,NO,NO,NO,NO,"(011) 4293-1110",,"Lunes a Viernes de 8 a 17","Sala De Espera",,,,,,,,,,,,,,,,,,,,,,,,,,,,,,,,,,,,,,,,,,,,,NO,NO,NO,NO,NO,NO,,,
109902,"Centro de Salud Nº 9 Billinghurst","Centro de Salud Público","1º Junta",5745,,,Billinghurst,Billinghurst,"General San Martín","Buenos Aires",Argentina,-1,,,-34.5805771,-58.5691387,,0.9,NO,SI,NO,NO,NO,NO,NO,,,,,,,,"(011) 4512 7040",,"Consejería Miércoles 9 a 12 hs.",,,,,"(011) 4512 7040",,,,,,,,,,,,,,,,,,,,,,,,,,,,,,,,,,NO,NO,NO,NO,NO,NO,,,
109912,"Centro de Salud Nº10, V. Esperanza","Centro de Salud Público",Garibaldi,1897,,,"José León Suarez","José León Suarez","General San Martín","Buenos Aires",Argentina,-1,,,-34.528122,-58.5668303,,0.9,NO,SI,NO,NO,NO,NO,NO,,,,,,,,"(011) 4580-1042",,"Consejería: Lunes, Martes, Miércoles 8.30 a 14 hs.",,,,,"(011) 4580-1042",,,,,,,,,,,,,,,,,,,,,,,,,,,,,,,,,,NO,NO,NO,NO,NO,NO,,,
109922,"Centro de Salud Nº17 (barrio Necochea)","Centro de Salud Público","Mitre (calle 33)",,,Obligado,"Villa Hidalgo","Villa Hidalgo","General San Martín","Buenos Aires",Argentina,-1,,,-34.610198,-58.44106499999999,,0.7,NO,SI,NO,NO,NO,NO,NO,,,,,,,,"(011) 4508-4090",,"Consejería: Lunes de 9 a 12 hs.",,,,,"(011) 4508-4090",,,,,,,,,,,,,,,,,,,,,,,,,,,,,,,,,,NO,NO,NO,NO,NO,NO,,,
109932,"Centro de Salud Nuestra Señora De Itati","Centro de Salud Público",Formosa,,,"San Pedro","Del Viso","Del Viso",Pilar,"Buenos Aires",Argentina,1,,,-34.4476799,-58.8052387,1,0.5,SI,NO,SI,NO,NO,NO,NO,"(02320) 403551",,,,,,,,,,,,,,"(02320) 403551",,,"Dra. Karina Roxana Brizuela, M.P. N° 445.836",,,,"(02320) 403551",,,,,,"No esta confirmado que asesore o realice interrupción legal del embarazo",,,,,,,,"(02320) 403551",,,,,,,,,,,,,NO,NO,NO,NO,NO,NO,,,
109942,"Centro de Salud Padre Mugica","Centro de salud Público","El Boyero",,,,"Florencio Varela","Florencio Varela","Florencio Varela","Buenos Aires",Argentina,-1,,,-34.7965806,-58.27601199999999,,0.5,SI,NO,NO,NO,NO,NO,NO,"(011) 4268-2197",,"Jueves desde 10",,,,,,,,,,,,,,,,,,,,,,,,,,,,,,,,,,,,,,,,,,,,,,NO,NO,NO,NO,NO,NO,,,
109952,"Centro de Salud Paulo Freire","Centro de Salud Público",Belgrano,1518,,,"Florencio Varela","Florencio Varela","Florencio Varela","Buenos Aires",Argentina,1,,,-34.7786248,-58.24341330000001,1,0.9,SI,NO,NO,NO,NO,NO,NO,,,"Lunes a Viernes 12.30 a 20.30",,,,,,,,,,,,,,,,,,,,,,,,,,,,,,,,,,,,,,,,,,,,,,NO,NO,NO,NO,NO,NO,,,
109972,"Centro de Salud Piaggi","Centro de Salud Público",Málaga,,,Garibaldi,"San Fernando","San Fernando","San Fernando","Buenos Aires",Argentina,1,,,-34.4430618,-58.55796429999999,1,0.5,NO,SI,SI,NO,NO,NO,NO,,,,,,,,"(011) 4714-7094",,,"Responsable: Ma. del Carmen De Filippis",,,,,,,,,,,,,,,,,,,,,,,,,,,,,,,,,,,,,,NO,NO,NO,NO,NO,NO,,,
109982,"Centro de Salud Pico De Oro","Centro de salud Público",Yugoslavia,,,"La Hoya","Florencio Varela","Florencio Varela","Florencio Varela","Buenos Aires",Argentina,-1,,,-34.7965806,-58.27601199999999,,0.5,SI,NO,NO,NO,NO,NO,NO,4274-2199,,"Jueves 10 a 12 y Martes 15 a 16",,,,,,,,,,,,,,,,,,,,,,,,,,,,,,,,,,,,,,,,,,,,,,NO,NO,NO,NO,NO,NO,,,
110002,"Centro de Salud Playa Dr. Carlos Fucile","Centro de Salud Público",8,3863,,,Necochea,Necochea,Necochea,"Buenos Aires",Argentina,1,,,-38.5785125,-58.7275089,1,1,NO,NO,SI,NO,NO,NO,NO,,,,,,,,,,,,,,,"(02262) 427201",,,"Dra. Silvia Elisabet Colella, M.P. N° 112.180",,,,,,,,,,,,,,,,,,,,,,,,,,,,,,,NO,NO,NO,NO,NO,NO,,,
110012,"CAPS Presidente Ibañez","Centro de Salud Público",Avellaneda,2647,,,"Morón Sur","Morón Sur",Morón,"Buenos Aires",Argentina,1,,,-34.6332859,-58.6357,1,0.5,SI,NO,SI,SI,NO,SI,NO,"(011) 4696 1141",,"Lunes a Viernes de 8 a 17 Hs.",,,,,,,,,,,,"(011) 4696 1141",,,,,,,"(011) 4696 1141",,,,,,"ofrece asesoramiento sobre interrupción legal del embarazo",,,,,,,,"(011) 4696 1141",,,,,,,,,,,,,NO,NO,NO,NO,NO,NO,,,
110032,"Centro de Salud SUTEBA 1º de Junio","Centro de Salud Público",Uruguay,47,,,"Morón Centro","Morón Centro",Morón,"Buenos Aires",Argentina,1,,,-34.636844,-58.3815591,1,0.5,SI,NO,SI,SI,NO,SI,NO,"(011) 15 4975-5868",,"Lunes a Viernes de 9:00 a 21:00 hs.","Referente: Daniel Dellianave",,,,,,,,,,,"(011) 15 4975-5868",,,,,,,"(011) 15 4975-5868",,,,,,,,,,,,,,"(011) 15 4975-5868",,,,,,,,,,,,,NO,NO,NO,NO,NO,NO,,,
110042,"Centro de Salud Pueblo Doyle","Centro de Salud Público","Ruta  191",27,,,"Santa Lucía","Santa Lucía","San Pedro","Buenos Aires",Argentina,1,,,-33.8809957,-59.8743,1,0.5,NO,NO,SI,NO,NO,NO,NO,,,,,,,,,,,,,,,,,,,,,,,,,,,,,,,,,,,,,,,,,,,,,,,,,NO,NO,NO,NO,NO,NO,,,
110052,"Centro de Salud Ramón Carrillo","Centro de Salud Público","Emiliano Saez",,,Rivadavia,"Trenque Lauquen","Trenque Lauquen","Trenque Lauquen","Buenos Aires",Argentina,1,,,-35.9732789,-62.7325973,1,0.5,SI,NO,SI,SI,NO,SI,NO,"(02983) 414545",,,,,,,,,,,,,,"(02983) 414545",,,"Dr. Pablo Javier Reyes, M.P. N° 113.252",,,,"(02983) 414545",,,,,,"Ofrece asesoramiento sobre interrupción legal del embarazo",,,,,,,,"(02983) 414545",,,,,,,,,,,,,NO,NO,NO,NO,NO,NO,,,
110062,"Centro de Salud Ramon Carrillo ","Centro de Salud Público","Mariano Acosta",481,,,"Monte Grande","Monte Grande","Esteban Echeverría","Buenos Aires",Argentina,1,,,-34.8204958,-58.4736171,1,0.9,NO,NO,SI,NO,NO,NO,NO,,,,,,,,,,,,,,,"(011) 4290-2355",,,,,,,,,,,,,,,,,,,,,,,,,,,,,,,,,,NO,NO,NO,NO,NO,NO,,,
110072,"Centro de Salud N.º 5 Ramon Carrillo ","Centro de Salud Público",Ocampos,5023,,Maipú,Billinghurst,Billinghurst,"General San Martín","Buenos Aires",Argentina,1,,,-34.578953,-58.5347205,1,0.7,SI,NO,SI,SI,NO,NO,NO,"(011) 4830-0690",,,,,,,,,,,,,,"(011) 4830-0690",,,,,,,"(011) 4830-0690",,,,,,"Ofrece asesoramiento sobre interrupción legal del embarazo",,,,,,,,,,,,,,,,,,,,,NO,NO,NO,NO,NO,NO,,,
110092,"Centro de Salud Reineke","Centro de Salud Público",Alvear,,,Cerbetto,"San Fernando","San Fernando","San Fernando","Buenos Aires",Argentina,1,,,-34.4404882,-58.5660912,1,0.7,SI,SI,SI,SI,NO,SI,NO,"(011) 4746-4132",,,,,,,"(011) 4746-4132",,,"Responsable: Cynthia Sánchez",,,,"(011) 4746-4132",,,,,,,"(011) 4746-4132",,,,,,"No esta confirmado que asesore o realice interrupción legal del embarazo",,,,,,,,"(011) 4746-4132",,,,,,,,,,,,,NO,NO,NO,NO,NO,NO,,,
110102,"Centro de Salud Ricardo Rojas","Centro de Salud Público",Ricchieri,,,Elizalde,"El Talar","El Talar",Tigre,"Buenos Aires",Argentina,1,,,-34.4720967,-58.6540206,1,0.5,NO,NO,SI,NO,NO,NO,NO,,,,,,,,,,,,,,,"(011) 45129988",,,"Dra. Analia Noemi Cursi Mp 450.981",,,,,,,,,,,,,,,,,,,,,,,,,,,,,,,NO,NO,NO,NO,NO,NO,,,
110112,"Centro de Salud Rincon De Milberg","Centro de Salud Público","Santa María",3000,,Irala,Tigre,Tigre,Tigre,"Buenos Aires",Argentina,-1,,,-34.4787422,-58.62004510000001,,0.7,NO,NO,SI,NO,NO,NO,NO,,,,,,,,,,,,,,,"(011) 45124517",,,"Dra. Carolina Catovsky, M.P. N° 452.051 Por Disposición N° 19 Del 4-1-2012",,,,,,,,,,,,,,,,,,,,,,,,,,,,,,,NO,NO,NO,NO,NO,NO,,,
110122,"Centro de Salud Rio Capitan","Centro de Salud Público","Rio Capitan",198,,"Arroyo Toro - Islas Del Delta",Tigre,Tigre,Tigre,"Buenos Aires",Argentina,1,,,-34.425087,-58.57965850000001,1,0.5,NO,NO,SI,NO,NO,NO,NO,,,,,,,,,,,,,,,"(011) 47280525",,,"Dra. Natalia Mariela Terán Esteban M.P. N° 450.162 Por Disposición N° 3124 Dl 30-11-2011",,,,,,,,,,,,,,,,,,,,,,,,,,,,,,,NO,NO,NO,NO,NO,NO,,,
110132,"Centro de Salud Rio Carapachay","Centro de Salud Público","Rio Carapachay",,,"Canal Ortiz - Islas Del Delta",Tigre,Tigre,Tigre,"Buenos Aires",Argentina,1,,,-34.425087,-58.57965850000001,1,0.5,NO,NO,SI,NO,NO,NO,NO,,,,,,,,,,,,,,,"(011) 47280056",,,"Dra. Natalia Mariela Terán Esteban, M.P. N° 450.162",,,,,,,,,,,,,,,,,,,,,,,,,,,,,,,NO,NO,NO,NO,NO,NO,,,
110162,"Centro de Salud San Cayetano","Centro de Salud Público","San Francisco 2044 ",,,,Tandil,Tandil,Tandil,"Buenos Aires",Argentina,1,,,-37.329576,-59.1294068,1,0.7,NO,NO,SI,NO,NO,NO,NO,,,,,,,,,,,,,,,"(02293) 422010/14 INT. 259",,,,,,,,,,,,,,,,,,,,,,,,,,,,,,,,,,NO,NO,NO,NO,NO,NO,,,
110182,"Centro de Salud San Francisco","Centro de Salud Público","Santa Marta",1871,,,"Morón Sur","Morón Sur",Morón,"Buenos Aires",Argentina,-1,,,-34.6332859,-58.6357,1,0.5,SI,NO,NO,NO,NO,NO,NO,"(011) 4690-1475",,,,,,,,,,,,,,"Región Sanitaria VII - UGC 6 - 2 Dispensers",,,,,,,,,,,,,,,,,,,,,,,,,,,,,,,,,,NO,NO,NO,NO,NO,NO,,,
110192,"Centro de Salud San Francisco","Centro de salud Público","Calle 1336",,,,"Florencio Varela","Florencio Varela","Florencio Varela","Buenos Aires",Argentina,-1,,,-34.7965806,-58.27601199999999,,0.5,SI,SI,SI,NO,NO,NO,NO,4274-3782,,"Martes 14 a 15.30 y Miercoles 9 a 10.30",,,,,,,,,,,,,,,,,,,,,,,,,,,,,,,,,,,,,,,,,,,,,,NO,NO,NO,NO,NO,NO,,,
110202,"Centro de Salud San Francisco","Centro de Salud Público",Uruguay,,,"Republica Argentina  Barrio San Francisco",Luján,Luján,Luján,"Buenos Aires",Argentina,-1,,,-31.4255315,-62.0705694,,0.7,NO,NO,SI,NO,NO,NO,NO,,,,,,,,,,,,,,,,,,,,,,,,,,,,,,,,,,,,,,,,,,,,,,,,,NO,NO,NO,NO,NO,NO,,,
110212,"Centro de Salud Santa Paula","Centro de Salud Público",Piñero,755,,,"José C. Paz","José C. Paz","José C. Paz","Buenos Aires",Argentina,1,,,-34.5058931,-58.7474666,1,1,SI,NO,SI,NO,NO,NO,NO,"(02320) 447291",,,,,,,,,,,,,,"(02320) 447291",,,,,,,,,,,,,,,,,,,,,,,,,,,,,,,,,,NO,NO,NO,NO,NO,NO,,,
110222,"Centro de Salud Suizo Ideal","Centro de Salud Público",Chile,,,"Roque Sáenz Peña","José C. Paz","José C. Paz","José C. Paz","Buenos Aires",Argentina,1,,,-34.5287136,-58.7473743,1,0.7,NO,NO,SI,NO,NO,NO,NO,,,,,,,,,,,,,,,"(02320) 438808",,,,,,,,,,,,,,,,,,,,,,,,,,,,,,,,,,NO,NO,NO,NO,NO,NO,,,
110242,"Centro de Salud Villa Concepcion","Centro de Salud Público","Calle 88 (independencia)",866,,,"General San Martín","General San Martín","General San Martín","Buenos Aires",Argentina,-1,,,-34.566667,-58.533333,,0.5,NO,NO,SI,NO,NO,NO,NO,,,,,,,,,,,,,,,"(011) 4830-0711",,,,,,,,,,,,,,,,,,,,,,,,,,,,,,,,,,NO,NO,NO,NO,NO,NO,,,
110262,"Centro de Salud Villa Depietri","Centro de Salud Público","San Martín",2765,,,"San Pedro","San Pedro","San Pedro","Buenos Aires",Argentina,1,,,-33.6874594,-59.6487818,1,0.9,SI,NO,SI,SI,NO,SI,NO,,,,,,,,,,,,,,,,,,,,,,,,,,,,"No esta confirmado que asesore o realice interrupción legal del embarazo",,,,,,,,-,,,,,,,,,,,,,NO,NO,NO,NO,NO,NO,,,
110272,"Centro de Salud Villa Federal","Centro de Salud Público","Sarmiento 3244",,,,Virreyes,Virreyes,"San Fernando","Buenos Aires",Argentina,1,,,-34.4506703,-58.5736331,1,1,NO,NO,SI,NO,NO,NO,NO,,,,,,,,,,,,,,,"(011) 47441718",,,,,,,,,,,,,,,,,,,,,,,,,,,,,,,,,,NO,NO,NO,NO,NO,NO,,,
110292,"Centro de Salud Villa Italia Norte","Centro de Salud Público","Patagonia 977 Villa Italia Norte",,,,Tandil,Tandil,Tandil,"Buenos Aires",Argentina,1,,,-37.3287999,-59.1367167,1,0.5,NO,NO,SI,NO,NO,NO,NO,,,,,,,,,,,,,,,"(02293) 15571990",,,,,,,,,,,,,,,,,,,,,,,,,,,,,,,,,,NO,NO,NO,NO,NO,NO,,,
110322,"Centro de Salud Villa Saboya","Centro de Salud Público","Victor Manuel",,,,"Villa Saboya","Villa Saboya","General Villegas","Buenos Aires",Argentina,1,,,-34.4601936,-62.6493404,1,0.5,NO,NO,SI,NO,NO,NO,NO,,,,,,,,,,,,,,,"(03382) 496019",,,,,,,,,,,,,,,,,,,,,,,,,,,,,,,,,,NO,NO,NO,NO,NO,NO,,,
110332,"Centro de Salud Virgen Del Rosario","Centro de Salud Público","Corrientes 298",,,"Jose Ingenieros","San Nicolás","San Nicolas","San Nicolás de los Arroyos","Buenos Aires",Argentina,1,,,-33.3282628,-60.22657830000001,1,0.9,NO,NO,SI,NO,NO,NO,NO,,,,,,,,,,,,,,,"(03461) 508830",,,,,,,,,,,,,,,,,,,,,,,,,,,,,,,,,,NO,NO,NO,NO,NO,NO,,,
110342,"Centro de Salud Vuelta De Obligado","Centro de Salud Público","Calle 25",14,,,Obligado,Obligado,"San Pedro","Buenos Aires",Argentina,1,,,-33.5965126,-59.8203066,1,0.5,NO,NO,SI,NO,NO,NO,NO,,,,,,,,,,,,,,,"(03329) 423089",,,,,,,,,,,,,,,,,,,,,,,,,,,,,,,,,,NO,NO,NO,NO,NO,NO,,,
110352,"Centro de Salud Zelaya","Centro de Salud Público","Joaquín V. Gonzalez",795,,,Zelaya,Zelaya,Pilar,"Buenos Aires",Argentina,1,,,-34.3693539,-58.86974060000001,1,0.5,SI,NO,SI,NO,NO,NO,NO,"(0230) 154306758",,,,,,,,,,,,,,"(0230) 154306758",,,,,,,"(0230) 154306758",,,,,,"No esta confirmado que asesore o realice interrupción legal del embarazo",,,,,,,,"(0230) 154306758",,,,,,,,,,,,,NO,NO,NO,NO,NO,NO,,,
110372,"Centro Imri","Centro de Salud Público",Rodo,300,,Moctezuma,Avellaneda,Avellaneda,Avellaneda,"Buenos Aires",Argentina,1,,,-34.6610756,-58.3669739,1,0.5,SI,NO,NO,NO,NO,NO,NO,,,,"Dr. Alvarez",,,,,,,,,,,,,,,,,,,,,,,,,,,,,,,,,,,,,,,,,,,,,NO,NO,NO,NO,NO,NO,,,
110412,"Centro Integrador Comunitario (CIC )","Centro de Salud Público","Alte. Brown",,,"Entre Ríos","Carlos Casares","Carlos Casares","Carlos Casares","Buenos Aires",Argentina,1,,,-35.6180137,-61.3528282,1,0.5,NO,NO,SI,NO,NO,NO,NO,,,,,,,,,,,,,,,"(02395) 45-5117",,,,,,,,,,,,,,,,,,,,,,,,,,,,,,,,,,NO,NO,NO,NO,NO,NO,,,
110422,"Centro Integrador Comunitario El Dique","Centro de Salud Público","Calle 43",,,"Calle 126",Ensenada,Ensenada,Ensenada,"Buenos Aires",Argentina,1,,,-34.8648233,-57.9085188,1,0.5,NO,SI,NO,NO,NO,NO,NO,,,,,,,,,,,,,,,,,,,,,,,,,,,,,,,,,,,,,,,,,,,,,,,,,NO,NO,NO,NO,NO,NO,,,
110442,"Centro Materno Infantil Audelina Zambrano","Centro de Salud Público","Corrientes 512",,,,Escobar,Escobar,Escobar,"Buenos Aires",Argentina,1,,,-34.3412942,-58.80004779999999,1,0.9,NO,NO,SI,NO,NO,NO,NO,,,,,,,,,,,,,,,"(03488) 430530",,,"Dr. Ángel Ferraro, M.P. N° 51.644",,,,,,,,,,,,,,,,,,,,,,,,,,,,,,,NO,NO,NO,NO,NO,NO,,,
110452,"Centro Materno Infantil N° 1 Bella Vista ","Centro de Salud Público",Mattaldi,1057,,,"Bella Vista","Bella Vista","San Miguel","Buenos Aires",Argentina,1,,,-34.562053,-58.67872999999999,1,1,NO,NO,SI,NO,NO,NO,NO,,,,,,,,,,,,,,,"(011) 4666-0221",,,,,,,,,,,,,,,,,,,,,,,,,,,,,,,,,,NO,NO,NO,NO,NO,NO,,,
110462,"Centro Medico Atencion Primaria Cemap","Centro de Salud Público","J Recarte N",69,,,"Monte Grande","Monte Grande","Esteban Echeverría","Buenos Aires",Argentina,1,,,-34.8160858,-58.47380870000001,1,0.9,NO,NO,SI,NO,NO,NO,NO,,,,,,,,,,,,,,,,,,"Dr. Carlos Alberto Leanza  Mp 47791",,,,,,,,,,,,,,,,,,,,,,,,,,,,,,,NO,NO,NO,NO,NO,NO,,,
110472,"Centro Medico De Atencion Primaria Cemap","Centro de Salud Público","Las Heras",39,,,"Bahía Blanca","Bahía Blanca","Bahía Blanca","Buenos Aires",Argentina,1,,,-38.72032189999999,-62.2623599,1,1,NO,NO,SI,NO,NO,NO,NO,,,,,,,,,,,,,,,,,,"Dr. Ruben Ernesto Badaracco Mp 1572 A Partir Del 27-12-10",,,,,,,,,,,,,,,,,,,,,,,,,,,,,,,NO,NO,NO,NO,NO,NO,,,
110482,"Centro Medico De Atencion Primaria Cemap 22 De Abr","Centro de Salud Público","Estanislao Zeballos",1674,,,Avellaneda,Avellaneda,Avellaneda,"Buenos Aires",Argentina,1,,,-34.6668602,-58.3555195,1,0.9,NO,NO,SI,NO,NO,NO,NO,,,,,,,,,,,,,,,,,,"Dr. Leanza Carlos Alberto",,,,,,,,,,,,,,,,,,,,,,,,,,,,,,,NO,NO,NO,NO,NO,NO,,,
110492,"Centro Medico Dorrego","Centro de Salud Público",Dorrego,1950,,,"Mar Del Plata","Mar Del Plata","General Pueyrredón","Buenos Aires",Argentina,1,,,-37.9952639,-57.56061,1,0.9,NO,NO,SI,NO,NO,NO,NO,,,,,,,,,,,,,,,,,,"Dr. Daniel Alberto Mezzanotte Mp 92.722",,,,,,,,,,,,,,,,,,,,,,,,,,,,,,,NO,NO,NO,NO,NO,NO,,,
110512,"Centro Monseñor Tomas Reggio","Centro de Salud Público",Colombia,,,Jujuy,"Presidente Derqui","Presidente Derqui",Pilar,"Buenos Aires",Argentina,1,,,-34.4876846,-58.8297464,1,0.7,NO,NO,SI,NO,NO,NO,NO,,,,,,,,,,,,,,,,,,"Dr. Simhan Javier Mp 53506",,,,"(0230) 488200",,,,,,"No esta confirmado que asesore o realice interrupción legal del embarazo",,,,,,,,"(0230) 488200",,,,,,,,,,,,,NO,NO,NO,NO,NO,NO,,,
110522,"Centro Municipal De Almirante Brown","Centro de Salud Público",Gorriti,888,,,Burzaco,Burzaco,"Almirante Brown","Buenos Aires",Argentina,1,,,-34.8286232,-58.39333420000001,1,0.5,NO,SI,NO,NO,NO,NO,NO,,,,,,,,"(011) 4214-0699",,,,,,,,,,,,,,,,,,,,,,,,,,,,,,,,,,,,,,,,,NO,NO,NO,NO,NO,NO,,,
110542,"Centro para mujeres en situación de violencia","Centro de Salud Público",Mendoza,289,,Alem,,Morón,Morón,"Buenos Aires",Argentina,1,,,-34.6455308,-58.622678,1,89999,SI,NO,SI,SI,NO,SI,NO,"(011) 4489-7777 ( Interno 5241) Línea gratuita 080",,,,,,,,,,,,,,"(011) 4489-7777 ( Interno 5241) Línea gratuita 080",,,,,,,"(011) 4489-7777 ( Interno 5241) Línea gratuita 080",,,,,,,,,,,,,,"(011) 4489-7777 ( Interno 5241) Línea gratuita 080",,,,,,,,,,,,,NO,NO,NO,NO,NO,NO,,,
110642,"Centro Periferico De Salud Sarmiento","Centro de Salud Público","Calle 1339",,,"Calle 1308","Florencio Varela","Florencio Varela","Florencio Varela","Buenos Aires",Argentina,1,,,-34.7965806,-58.27601199999999,1,0.5,NO,NO,SI,NO,NO,NO,NO,,,,,,,,,,,,,,,"(011) 4274-2096",,,,,,,,,,,,,,,,,,,,,,,,,,,,,,,,,,NO,NO,NO,NO,NO,NO,,,
110672,"Centro Periférico N° 18","Centro de Salud Público",Lavezzari,,,"Colectora Sur",Campana,Campana,Campana,"Buenos Aires",Argentina,1,,,-34.2084789,-58.9315916,1,0.7,NO,NO,SI,NO,NO,NO,NO,,,,,,,,,,,,,,,"(03489) 44-8420",,,,,,,,,,,,,,,,,,,,,,,,,,,,,,,,,,NO,NO,NO,NO,NO,NO,,,
110692,"Centro Periférico N° 4 ","Centro de Salud Público",Zarate,,,"Ugartemendia - San Cayetano",Campana,Campana,Campana,"Buenos Aires",Argentina,1,,,-34.1633346,-58.95926429999999,1,0.5,NO,NO,SI,NO,NO,NO,NO,,,,,,,,,,,,,,,"(03489) 43-0184",,,,,,,,,,,,,,,,,,,,,,,,,,,,,,,,,,NO,NO,NO,NO,NO,NO,,,
110702,"Centro Preventivo Materno Infantil","Centro de Salud Público",51,,,13,Colón,Colón,Colón,"Buenos Aires",Argentina,1,,,-33.8971309,-61.0975518,1,0.7,SI,NO,SI,SI,NO,SI,NO,"(02477) 43-0416",,,,,,,,,,,,,,"(02477) 43-0416",,,,,,,"(02477) 43-0416",,,,,,"No esta confirmado que realice o asesore sobre interrupción legal del embarazo.",,,,,,,,,,,,,,,,,,,,,NO,NO,NO,NO,NO,NO,,,
110712,"Centro Salud Las Mandarinas","Centro de Salud Público",Azcuénaga,,,"Hansen Magdalena de Fait",,"Coronel Brandsen",Brandsen,"Buenos Aires",Argentina,1,,,-35.1680865,-58.2395315,1,0.7,NO,SI,NO,NO,NO,NO,NO,,,,,,,,,,,,,,,,,,,,,,,,,,,,,,,,,,,,,,,,,,,,,,,,,NO,NO,NO,NO,NO,NO,,,
110732,"Centro Salud Nº 4 - Dr. Luis Agote","Centro de Salud Público","Diag. 55 J.V.González",50,,,"José León Suarez","José León Suarez","General San Martín","Buenos Aires",Argentina,-1,,,-34.6383807,-58.37237989999999,,0.7,NO,SI,NO,NO,NO,NO,NO,,,,,,,,"(011) 4580-1057/1056",,"Martes 10 a 12 hs.",,,,,"(011) 4580-1057/1056",,,,,,,,,,,,,,,,,,,,,,,,,,,,,,,,,,NO,NO,NO,NO,NO,NO,,,
110742,"Centro Sanitario Villa Jardín","Centro de Salud Público",Guatemala,3069,,,"San Fernando","San Fernando","San Fernando","Buenos Aires",Argentina,1,,,-34.4767385,-58.58589999999999,1,0.9,NO,SI,SI,NO,NO,NO,NO,,,,,,,,"(011) 4714-6746 / 8746",,,"Responsable: Catalina Gerase",,,,,,,,,,,,,,,,,,,,,,,,,,,,,,,,,,,,,,NO,NO,NO,NO,NO,NO,,,
110752,"Centro Social De La Tercera Edad ""los Nonos""","Centro de Salud Público",,,,,"Don Orione/claypole","Don Orione","Almirante Brown","Buenos Aires",Argentina,1,,,-34.8062416,-58.3362261,1,0.7,SI,NO,NO,NO,NO,NO,NO,,,"Lunes a Viernes de 10 a 12 y de 14 a 16",,,,"Manzana 15 frente a manzana 14",,,,,,,,,,,,,,,,,,,,,,,,,,,,,,,,,,,,,,,,,,NO,NO,NO,NO,NO,NO,,,
110762,"Ceytteb (d)",Privado,Malabia,674,,,Baradero,Baradero,Baradero,"Buenos Aires",Argentina,1,,,-33.8114349,-59.4974669,1,0.7,NO,NO,NO,NO,SI,NO,NO,,,,,,,,,,,,,,,,,,,,,,,,,,,,,,,,"Psicopedagoga Jesica Vanesa Viera",,,,,,,,,,,,,,,,,NO,NO,NO,NO,NO,NO,,,
110772,"Che Sida - Facultad De Ciencias Sociales","Establecimiento Educativo","Aristóbulo Del Valle",5737,,,Olavarría,Olavarría,Olavarría,"Buenos Aires",Argentina,1,,,-36.8937167,-60.32334989999999,1,0.5,SI,NO,NO,NO,NO,NO,NO,"(02284) 450115 interno 307 o 308",,,"Responsable: Vanina Conde. 2 Dispensers",,,,,,,,,,,,,,,,,,,,,,,,,,,,,,,,,,,,,,,,,,,,,NO,NO,NO,NO,NO,NO,,,
110782,"CIC  Aeroparque","Centro de Salud Público",112,,,"13 Ruta 77 Km 5.6",Miramar,Miramar,"General Alvarado","Buenos Aires",Argentina,1,,,-38.2703168,-57.8394498,1,0.5,SI,NO,SI,NO,NO,NO,NO,"(02296) 15440841",,,,,,,,,,,,,,"(02296) 15440841",,,,,,,,,,,,,,,,,,,,,,,,,,,,,,,,,,NO,NO,NO,NO,NO,NO,,,
110802,"CIC  Balcarce","Centro de Salud Público",20,3,,,Balcarce,Balcarce,Balcarce,"Buenos Aires",Argentina,1,,,-37.8322949,-58.260065,1,0.9,SI,SI,SI,SI,SI,SI,SI,,,,,,,,,,,,,,,"(02266) 422-279",,,,,,,,,,,,,,,,,,,,,,,,,,,,,,,,,,NO,NO,NO,NO,NO,NO,,,
110822,"CIC  Barrio Villa Progreso","Centro de Salud Público","Av. 20 De Diciembre",,,Azzara,Rojas,Rojas,Rojas,"Buenos Aires",Argentina,1,,,-34.1899095,-60.72063739999999,1,0.7,SI,NO,NO,NO,NO,NO,NO,"(02475) 464601",,"Lunes a viernes de 7 a 18hs",,,,,,,,,,,,,,,,,,,,,,,,,,,,,,,,,,,,,,,,,,,,,,NO,NO,NO,NO,NO,NO,,,
110832,"CIC  Boca Tres Arroyos","Centro de Salud Público",Brown,1300,,,"Tres Arroyos","Tres Arroyos","Tres Arroyos","Buenos Aires",Argentina,1,,,-38.3847209,-60.2910777,1,0.9,NO,NO,SI,NO,NO,NO,NO,,,,,,,,,,,,,,,"(02983) 15565787",,,,,,,,,,,,,"No esta confirmado que asesore o realice interrupción legal del embarazo",,,,,,,,,,,,,,,,,,,,,NO,NO,NO,NO,NO,NO,,,
110842,"CIC  Carranza","Centro de salud público",Juarez,606,,,Chascomús,Chascomús,Chascomús,"Buenos Aires",Argentina,-1,,,-35.5686172,-58.0186127,,0.9,NO,SI,NO,NO,NO,NO,NO,,,,,,,,,,,,,,,,,,,,,,,,,,,,,,,,,,,,,,,,,,,,,,,,,NO,NO,NO,NO,NO,NO,,,
110852,"CIC  De Alberdi","Centro de Salud Público","Presidente Illia",,,Lebensohn,,"Juan Bautista Alberdi","Leandro N. Alem","Buenos Aires",Argentina,1,,,-34.438501,-61.81226050000001,1,0.5,SI,NO,NO,NO,NO,NO,NO,"(02362) 15566536",,,,,,,,,,,,,,,,,,,,,,,,,,,,,,,,,,,,,,,,,,,,,,,,NO,NO,NO,NO,NO,NO,,,
110862,"CIC  Monseñor Angolelli","Centro de Salud Público",Irala,,,Vertiz,"Dock Sud","Dock Sud",Avellaneda,"Buenos Aires",Argentina,1,,,-34.6539459,-58.3489914,1,0.5,NO,NO,SI,NO,NO,NO,NO,,,,,,,,,,,,,,,,,,,,,,,,,,,,,,,,,,,,,,,,,,,,,,,,,NO,NO,NO,NO,NO,NO,,,
110882,"CIC  Ensenada","Centro de Salud Público","Calle 126",43,,,Ensenada,Ensenada,Ensenada,"Buenos Aires",Argentina,1,,,-34.8704488,-57.9026057,1,0.9,NO,NO,SI,NO,NO,NO,NO,,,,,,,,,,,,,,,,,,"Dr. Juan Carlos Orazi, M.P. N° 22.647",,,,,,,,,,,,,,,,,,,,,,,,,,,,,,,NO,NO,NO,NO,NO,NO,,,
110892,"CIC  Horacio Quintin","Centro de Salud Público","Boulevar 5",,,"Calle 2",Chascomús,Chascomús,Chascomús,"Buenos Aires",Argentina,1,,,-35.5785737,-58.01385140000001,1,0.5,NO,SI,NO,NO,NO,NO,NO,,,,,,,,"(02241) 15588248",,,,,,,,,,,,,,,,,,,,,,,,,,,,,,,,,,,,,,,,,NO,NO,NO,NO,NO,NO,,,
110932,"CIC  Maria Lobato","Centro de Salud Público","Juan Jose Paso",,,Sarmiento,"San Miguel","San Miguel","San Miguel","Buenos Aires",Argentina,1,,,-34.543055,-58.7118577,1,0.5,NO,NO,SI,NO,NO,NO,NO,,,,,,,,,,,,,,,,,,,,,,,,,,,,,,,,,,,,,,,,,,,,,,,,,NO,NO,NO,NO,NO,NO,,,
110942,"CIC  Pehuajo","Centro de Salud Público",Maciel,,,Zanni,Pehuajó,Pehuajó,Pehuajó,"Buenos Aires",Argentina,1,,,-35.8107166,-61.8987832,1,0.5,NO,NO,SI,NO,NO,NO,NO,,,,,,,,,,,,,,,,,,,,,,,,,,,,,,,,,,,,,,,,,,,,,,,,,NO,NO,NO,NO,NO,NO,,,
110952,"CIC  Pista De Trote","Centro de Salud Público","Río Traful",,,Juramento,"Florencio Varela","Florencio Varela","Florencio Varela","Buenos Aires",Argentina,1,,,-34.7965806,-58.27601199999999,1,0.5,NO,NO,SI,NO,NO,NO,NO,,,,,,,,,,,,,,,"(011) 42379568",,,"Carlos Gonzalez",,,,,,,,,,,,,,,,,,,,,,,,,,,,,,,NO,NO,NO,NO,NO,NO,,,
110972,"CIC  San Fermin","Centro de Salud Público","Los Rosales",,,"Los Lotos",Luján,Luján,Luján,"Buenos Aires",Argentina,1,,,-34.5453718,-59.11846180000001,1,0.7,NO,NO,SI,NO,NO,NO,NO,,,,,,,,,,,,,,,,,,,,,,,,,,,,,,,,,,,,,,,,,,,,,,,,,NO,NO,NO,NO,NO,NO,,,
110982,"CIC  San Pedro","Centro de Salud Público","Hermano Indio",,,"Casella Barrio 291 Viviendas","San Pedro","San Pedro","San Pedro","Buenos Aires",Argentina,1,,,-33.6757835,-59.66286640000001,1,0.5,NO,NO,SI,NO,NO,NO,NO,,,,,,,,,,,,,,,,,,,,,,,,,,,,,,,,,,,,,,,,,,,,,,,,,NO,NO,NO,NO,NO,NO,,,
110992,"CIC  Spurr","Centro de Salud Público",Esmeralda,1450,,,"Bahía Blanca","Bahía Blanca","Bahía Blanca","Buenos Aires",Argentina,1,,,-38.7555032,-62.254255,1,0.9,SI,NO,NO,NO,NO,NO,NO,"(0291) 496-4730",,"Hasta las 15 hs.","Marina Suárez",,,,,,,,,,,,,,,,,,,,,,,,,,,,,,,,,,,,,,,,,,,,,NO,NO,NO,NO,NO,NO,,,
111012,"Clinica Nuestra Señora De Fatima",Privado,"Victor Vergani",830,,,Zelaya,Zelaya,Pilar,"Buenos Aires",Argentina,1,,,-34.3693539,-58.86974060000001,1,0.5,NO,NO,SI,NO,NO,NO,NO,,,,,,,,,,,,,,,02322-420303,,,"Dr. Pedro Antonio Lencinas, M.P. 48702",,,,,,,,,,,,,,,,,,,,,,,,,,,,,,,NO,NO,NO,NO,NO,NO,,,
111022,"Clinica Nuestra Señora De La Dulce Espera",Privado,"General Ferre",521,,,Sarandí,Sarandí,Avellaneda,"Buenos Aires",Argentina,1,,,-34.6853415,-58.35029249999999,1,1,NO,NO,NO,NO,SI,NO,NO,,,,,,,,,,,,,,,,,,,,,,,,,,,,,011-42057100,,,"Dr. Saba, Eduardo Daniel",,,,,,,,,,,,,,,,,NO,NO,NO,NO,NO,NO,,,
111032,"Clinica Privada Chascomus Sa",Privado,"Av. Lastra",364,,,"Chascomús Country Club",Chascomús,Chascomús,"Buenos Aires",Argentina,1,,,-35.5781511,-58.0170905,1,0.9,NO,NO,NO,NO,SI,NO,NO,,,,,,,,,,,,,,,,,,,,,,,,,,,,,"(02241) 423365",,,"Dr. German Eduardo Mognone",,,,,,,,,,,,,,,,,NO,NO,NO,NO,NO,NO,,,
111042,"Clinica Privada Constituyentes",Privado,Constituyentes,1068,,,Morón,Morón,Morón,"Buenos Aires",Argentina,1,,,-34.6452968,-58.6181454,1,89999,NO,NO,NO,SI,NO,NO,NO,,,,,,,,,,,,,,,,"(011) 4483-3192 / 96",,,"Dr. Nul Daniel Rubén",,,,,,,,,,"(011) 4483-3192 / 96",,,"Dr. Nul Daniel Rubén",,,,,,0,,,,,,,,,,,NO,NO,NO,NO,NO,NO,,,
111052,"Clinica Privada Hispano Argentina",Privado,Dorrego,296,,,"Tres Arroyos","Tres Arroyos","Tres Arroyos","Buenos Aires",Argentina,1,,,-38.3821519,-60.27661999999999,1,0.9,NO,NO,NO,NO,SI,NO,NO,,,,,,,,,,,,,,,,,,,,,,,,,,,,,"02983- 431365",,,"Dr. Desperes, Sebastián",,,,,,,,,,,,,,,,,NO,NO,NO,NO,NO,NO,,,
111062,"Clinica Privada Independencia",Privado,"Luis María Drago",5681,,,Munro,Munro,"Vicente López","Buenos Aires",Argentina,1,,,-34.5394956,-58.5333117,1,0.9,NO,NO,NO,NO,SI,NO,NO,,,,,,,,,,,,,,,,,,,,,,,,,,,,,"(011) 4721-2351",,,"Dr. Hued, Fabiola Maricel",,,,,,,,,,,,,,,,,NO,NO,NO,NO,NO,NO,,,
111072,"Clinica Privada Santa Maria",Privado,Marengo,3908,,,"Villa Ballester","Villa Ballester","General San Martín","Buenos Aires",Argentina,1,,,-34.5561748,-58.5479339,1,1,NO,NO,NO,NO,SI,NO,NO,,,,,,,,,,,,,,,,,,,,,,,,,,,,,,,,"Dr. Tursi Osvaldo Hugo",,,,,,,,,,,,,,,,,NO,NO,NO,NO,NO,NO,,,
111082,"Club Atlanta",Privado,,,,,Morse,Morse,Junín,"Buenos Aires",Argentina,1,,,-34.7613602,-60.8411179,1,0.5,SI,NO,NO,NO,NO,NO,NO,"(02362) 15312012",,,,,,,,,,,,,,,,,,,,,,,,,,,,,,,,,,,,,,,,,,,,,,,,NO,NO,NO,NO,NO,NO,,,
111092,"Club Social Y Deportivo Defensores De Don Orione","Organización Social","Eva Perón",,,"Av. Monterverde","Don Orione/claypole","Don Orione","Almirante Brown","Buenos Aires",Argentina,1,,,-34.8062416,-58.3362261,1,0.7,SI,NO,NO,NO,NO,NO,NO,"(011) 5258-1112",,"Martes, Miercoles y Jueves de 18 a 20",,,,"Frente a Manzana 48",,,,,,,,,,,,,,,,,,,,,,,,,,,,,,,,,,,,,,,,,,NO,NO,NO,NO,NO,NO,,,
111102,"Club Villa Belgrano",Privado,"Av. Libertad",935,,,Junín,Junín,Junín,"Buenos Aires",Argentina,1,,,-34.5663655,-60.94342,1,0.9,SI,NO,NO,NO,NO,NO,NO,"(02362) 15458354",,,,,,,,,,,,,,,,,,,,,,,,,,,,,,,,,,,,,,,,,,,,,,,,NO,NO,NO,NO,NO,NO,,,
111132,"Comedor Barrio San Martín","Organización Social","San Martín",,,Moreno,,"General Rodríguez","General Rodríguez","Buenos Aires",Argentina,1,,,-34.585602,-58.9262094,1,0.7,SI,NO,NO,NO,NO,NO,NO,,,"De 09:00 a 15:00 hs.","Referente: Señora Olga",,,,,,,,,,,,,,,,,,,,,,,,,,,,,,,,,,,,,,,,,,,,,NO,NO,NO,NO,NO,NO,,,
